Id,NAME,ADDRESS,CITY,STATE,ZIP,LAT,LON,PHONE,REVENUE,UTILIZATION
ef58ea08-d883-3957-8300-150554edc8fb,HEALTHALLIANCE HOSPITALS  INC,60 HOSPITAL ROAD,LEOMINSTER,MA,01453,42.520838,-71.770876,9784662000,99606.41000000188,890
69176529-fd1f-3b3f-abce-a0a3626769eb,MOUNT AUBURN HOSPITAL,330 MOUNT AUBURN STREET,CAMBRIDGE,MA,02138,42.375967,-71.118275,6174923500,329195.30999998783,3064
5e765f2b-e908-3888-9fc7-df2cb87beb58,STURDY MEMORIAL HOSPITAL,211 PARK STREET,ATTLEBORO,MA,02703,41.931653,-71.294503,5082225200,105288.3100000015,1010
f1fbcbfb-fcfa-3bd2-b7f4-df20f1b3c3a4,LAWRENCE GENERAL HOSPITAL,ONE GENERAL STREET,LAWRENCE,MA,01842,42.700273,-71.161357,9786834000,181980.86000000007,1782
e002090d-4e92-300e-b41e-7d1f21dee4c6,CAMBRIDGE HEALTH ALLIANCE,1493 CAMBRIDGE STREET,CAMBRIDGE,MA,02138,42.375967,-71.118275,6176652300,256273.02000000083,2402
ef6ab57c-ed94-3dbe-9861-812d515918b3,CAPE COD HOSPITAL,88 LEWIS BAY ROAD,HYANNIS,MA,02601,41.748854,-70.74053599999998,5087711800,208432.870000001,1986
49318f80-bd8b-3fc7-a096-ac43088b0c12,COOLEY DICKINSON HOSPITAL INC THE,30 LOCUST STREET,NORTHAMPTON,MA,01060,42.327044,-72.67463000000002,4135822000,210966.0800000022,1892
fbf6180e-b800-3ebe-b91d-93d0288c400e,BAYSTATE FRANKLIN MEDICAL CENTER,164 HIGH STREET,GREENFIELD,MA,01301,42.614671,-72.597063,4137730211,93097.19000000134,810
8b58cdd1-3d79-3126-8fe0-da2c54d6805c,CARNEY HOSPITAL,2100 DORCHESTER AVENUE,BOSTON,MA,02124,42.33196,-71.020173,6175062000,44171.94000000022,395
4bdaa4c2-c664-3089-aee2-7137abbad27f,HARRINGTON MEMORIAL HOSPITAL-1,100 SOUTH STREET,SOUTHBRIDGE,MA,01550,42.059669,-72.03404,5087659771,100354.2000000016,985
ecc51621-0af3-3b35-ac3e-8b1e34022e92,SAINT ANNE'S HOSPITAL,795 MIDDLE STREET,FALL RIVER,MA,02721,41.725351,-71.094162,5086745600,152765.300000003,1529
5d4b9df1-93ae-3bc9-b680-03249990e558,HOLYOKE MEDICAL CENTER,575 BEECH STREET,HOLYOKE,MA,01040,42.211656,-72.642448,4135342500,211221.78999999806,2069
37b4d73f-652d-3033-a16e-d97b9e8b4cda,ANNA JAQUES HOSPITAL,25 HIGHLAND AVENUE,NEWBURYPORT,MA,01950,42.812141,-70.886646,9784631000,55614.79000000016,531
5844ad77-f653-3c2b-b7dd-e97576ab3b03,BAYSTATE WING HOSPITAL AND MEDICAL CENTERS,40 WRIGHT STREET,PALMER,MA,01069,42.187794,-72.30846899999997,4132837651,87412.89000000108,852
08bcda9c-f8c8-3244-82d4-fc306a7a55d3,BOSTON MEDICAL CENTER CORPORATION-,1 BOSTON MEDICAL CENTER PLACE,BOSTON,MA,02118,42.33196,-71.020173,6176388000,30429.220000000063,295
37c0de84-bcaf-3624-82bf-a89b2ac441b8,BEVERLY HOSPITAL CORPORATION,85 HERRICK STREET,BEVERLY,MA,01915,42.556659,-70.84496,9789223000,121097.2600000028,1148
4861d01f-019c-3dac-a153-8334e50919f9,NORTH SHORE MEDICAL CENTER -,81 HIGHLAND AVENUE,SALEM,MA,01970,42.50128,-70.897502,9787411215,205799.10999999972,1890
a0b6ec0c-e587-3b2a-bf9f-248849f29ee5,ST ELIZABETH'S MEDICAL CENTER,736 CAMBRIDGE STREET,BRIGHTON,MA,02135,42.33196,-71.020173,6177893000,21749.950000000077,208
4f3a530e-a2f7-3de0-9a09-c0a70a9ab894,BERKSHIRE MEDICAL CENTER INC - 1,725 NORTH STREET,PITTSFIELD,MA,01201,42.452045,-73.26054,4134472000,134529.66000000283,1269
f71ce1a9-cca7-3295-9a1e-c88ac3479b6f,MARLBOROUGH HOSPITAL,157 UNION STREET,MARLBOROUGH,MA,01752,42.349617,-71.547214,5084815000,120528.77000000296,1156
c44f361c-2efb-3050-8f97-0354a12e2920,SIGNATURE HEALTHCARE BROCKTON HOSPITAL,680 CENTER STREET,BROCKTON,MA,02302,42.082543,-71.024638,5089417000,225301.54999999993,2091
331f4c11-d298-308b-aaa1-d7825b29b57f,CLINTON HOSPITAL ASSOCIATION,201 HIGHLAND STREET,CLINTON,MA,01510,42.411887,-71.690005,9783683000,85424.81000000145,770
b1ddf812-1fdd-3adf-b1d5-32cc8bd07ebb,BETH ISRAEL DEACONESS HOSPITAL - PLYMOUTH,275 SANDWICH STREET,PLYMOUTH,MA,02360,41.897892,-70.62403,5087462000,257770.09999999992,2493
6be05ccf-ef94-341f-a2a3-1cf9bfde1b18,ADCARE HOSPITAL OF WORCESTER INC,107 LINCOLN STREET,WORCESTER,MA,01605,42.269478,-71.807783,5087999000,87490.80000000096,823
b0e04623-b02c-3f8b-92ea-943fc4db60da,LOWELL GENERAL HOSPITAL,295 VARNUM AVENUE,LOWELL,MA,01854,42.638893,-71.32210699999997,9789376000,320619.8899999911,2943
ebc3f5c4-6700-34af-8323-85621c313726,NOBLE HOSPITAL,115 WEST SILVER STREET,WESTFIELD,MA,01085,42.138838,-72.755911,4135682811,32599.210000000145,304
fd328395-ab1d-35c6-a2d0-d05a9a79cf11,MERCY MEDICAL CTR,271 CAREW STREET,SPRINGFIELD,MA,01104,42.115454,-72.539978,4137489000,115879.91000000233,1061
d692e283-0833-3201-8e55-4f868a9c0736,HALLMARK HEALTH SYSTEM,585 LEBANON STREET,MELROSE,MA,02176,42.455723,-71.05901899999998,7819793000,381193.0499999791,3606
d78e84ec-30aa-3bba-a33a-f29a3a454662,MASSACHUSETTS GENERAL HOSPITAL,55 FRUIT STREET,BOSTON,MA,02114,42.33196,-71.020173,6177262000,53238.23999999989,513
8ad64ecf-c817-3753-bee7-006a8e662e06,MORTON HOSPITAL,88 WASHINGTON STREET,TAUNTON,MA,02780,41.903323,-71.094984,5088287000,249349.95999999932,2356
23834663-ed53-3da9-b330-d6e1ecb8428e,SOUTHCOAST HOSPITAL GROUP  INC,363 HIGHLAND AVENUE,FALL RIVER,MA,02720,41.725351,-71.094162,5086793131,228451.56000000023,2213
44bef9d3-91c2-3005-93e0-ccf436348ff0,MASSACHUSETTS EYE AND EAR INFIRMARY -,243 CHARLES STREET,BOSTON,MA,02114,42.33196,-71.020173,6175237900,12786.389999999981,129
60457c13-adb2-3415-82c5-86ab5dab5f93,BAYSTATE MEDICAL CENTER,759 CHESTNUT STREET,SPRINGFIELD,MA,01199,42.115454,-72.539978,4137940000,206134.68000000287,1908
a9f20dc1-5147-3789-bcef-bbecb41c5983,HOLY FAMILY HOSPITAL,70 EAST STREET,METHUEN,MA,01844,42.742751,-71.178588,9786870156,67265.28000000057,605
7fb56531-86bd-3e4a-8619-4df9942da309,BETH ISRAEL DEACONESS HOSPITAL - NEEDHAM,148 CHESTNUT STREET,NEEDHAM,MA,02494,42.281593,-71.242414,7814533002,106528.57000000183,998
03347b4d-994e-302b-848b-58019a4e274d,EMERSON HOSPITAL -,133 OLD ROAD TO 9 ACRE CORNER,W CONCORD,MA,01742,42.269478,-71.807783,9783691400,161652.00000000317,1563
cb6a50e0-af76-3758-99ad-3200ede03fff,BETH ISRAEL DEACONESS MEDICAL CENTER,330 BROOKLINE AVENUE,BOSTON,MA,02215,42.33196,-71.020173,6176677000,43526.05000000025,396
9a7149fa-49fc-3c87-b935-d29c55808717,NEW ENGLAND BAPTIST HOSPITAL,125 PARKER HILL AVENUE,BOSTON,MA,02120,42.33196,-71.020173,6177545800,13070.709999999985,120
24cb4eab-6166-3530-bddc-a5a8a14a4fc1,MILFORD REGIONAL MEDICAL CENTER,14 PROSPECT STREET,MILFORD,MA,01757,42.158692,-71.521419,5084731190,414567.96999997203,3865
e44f438a-601b-30fb-85eb-bfaf8ddcb5ad,HEYWOOD HOSPITAL -,242 GREEN STREET,GARDNER,MA,01440,42.586516,-71.988062,9786323420,90229.34000000173,823
ac8356a5-78f8-3a63-8a1e-59e832fd54e7,NASHOBA VALLEY MEDICAL CENTER,200 GROTON ROAD,AYER,MA,01432,42.562221,-71.58484399999998,9787849000,139824.35000000295,1368
db0acede-4abe-3c01-8d03-5c68a190d8c7,SOUTH SHORE HOSPITAL,55 FOGG ROAD,SOUTH WEYMOUTH,MA,02190,42.24158900000001,-71.082651,7813408000,190324.1699999992,1878
3d10019f-c88e-3de5-9916-6107b9c0263d,NEWTON-WELLESLEY HOSPITAL,2014 WASHINGTON STREET,NEWTON,MA,02462,42.331876,-71.208402,6172436000,226128.66000000222,2065
f4e7709c-02f6-37ca-aeea-8247d74e88e7,WINCHESTER HOSPITAL,41 HIGHLAND AVENUE,WINCHESTER,MA,01890,42.452752,-71.144319,7817299000,141324.34000000329,1263
12c9daf5-a29c-36c9-ac55-28972463e566,BETH ISRAEL DEACONESS HOSPITAL-MILTON INC,199 REEDSDALE ROAD,MILTON,MA,02186,42.24158900000001,-71.082651,6176964600,202984.79000000202,1776
27379046-608b-32f0-9df7-8c833cf5d11d,BRIGHAM AND WOMEN'S HOSPITAL,75 FRANCIS STREET,BOSTON,MA,02115,42.33196,-71.020173,6177325500,46573.920000000195,439
226098a2-6a40-3588-b5bb-db56c3a30a04,GOOD SAMARITAN MEDICAL CENTER,235 NORTH PEARL STREET,BROCKTON,MA,02301,42.082543,-71.024638,5084273000,244313.23000000222,2282
b7175ab4-bde5-3848-891b-579bccb77c7c,TUFTS MEDICAL CENTER,800 WASHINGTON STREET,BOSTON,MA,02111,42.33196,-71.020173,6176365000,31075.38000000003,275
d733d4a9-080d-3593-b910-2366e652b7ea,BRIGHAM AND WOMEN'S FAULKNER HOSPITAL,1153 CENTRE STREET,BOSTON,MA,02130,42.33196,-71.020173,6179837000,43138.42000000028,402
3bd5eda0-16da-3ba5-8500-4dfd6ae118b8,NORWOOD HOSPITAL,800 WASHINGTON STREET,NORWOOD,MA,02062,42.18736,-71.195955,5087721000,229769.88000000062,2163
d5117822-5756-389d-9547-891a372d580f,FALMOUTH HOSPITAL,67 & 100 TER HEUN DRIVE,FALMOUTH,MA,02540,41.57072,-70.556682,5085485300,339939.15999998624,3298
f99c74cc-7d1a-3f95-9a33-4a9357bf2f2a,UMASS MEMORIAL MEDICAL CENTER INC,55 LAKE AVENUE NORTH,WORCESTER,MA,01655,42.269478,-71.807783,5083341000,73231.8300000007,694
6f122869-a856-3d65-8db9-099bf4f5bbb8,LAHEY HOSPITAL & MEDICAL CENTER  BURLINGTON,41 & 45 MALL ROAD,BURLINGTON,MA,01803,42.503227,-71.201713,7817445100,167360.98000000266,1600
465de31f-3098-365c-af70-48a071e1f5aa,METROWEST MEDICAL CENTER,115 LINCOLN STREET,FRAMINGHAM,MA,01701,42.307905,-71.436196,5083831000,219386.37000000084,2020
1eaf97fa-9de6-38de-a9c4-6efe5dc574be,ST VINCENT HOSPITAL,123 SUMMER STREET,WORCESTER,MA,01608,42.269478,-71.807783,5083635000,98675.99000000198,915
80e919cc-df1a-3838-b75e-541564a286e5,NANTUCKET COTTAGE HOSPITAL,57 PROSPECT STREET,NANTUCKET,MA,02554,41.293416,-70.10216899999999,5082281200,85734.74000000133,776
8e00f524-3a5f-313e-9542-378dfc61193f,MARTHA'S VINEYARD HOSPITAL INC,ONE HOSPITAL ROAD  FIRST FL  WING 5   PO BOX 1477,OAK BLUFFS,MA,02557,41.45716,-70.556101,5086930410,9015.169999999991,83
56e0b3b3-4fac-3776-8fc9-7b465eb2fc17,FAIRVIEW HOSPITAL,29 LEWIS AVENUE,GREAT BARRINGTON,MA,01230,42.19397,-73.361473,4135280790,17462.149999999998,154
161a799c-4894-36f6-8ca7-2a71c8107f79,ATHOL MEMORIAL HOSPITAL,2033 MAIN STREET,ATHOL,MA,01331,42.593384,-72.230228,9782493511,185826.87000000238,2013
956ccb85-bea0-30f9-af48-52f5dd95ff72,FRANCISCAN CHILDREN'S HOSPITAL & REHAB CENTER,30 WARREN STREET,BRIGHTON,MA,02135,42.33196,-71.020173,6172543800,12166.169999999978,141
d7b11827-25f2-350b-bcd8-939fc59851b0,BOSTON CHILDREN'S HOSPITAL,300 LONGWOOD AVENUE,BOSTON,MA,02115,42.33196,-71.020173,6177356000,33399.99000000002,311
5103c940-0c08-392f-95cd-446e0cea042a,SHRINERS' HOSPITAL FOR CHILDREN (THE),516 CAREW STREET,SPRINGFIELD,MA,01104,42.115454,-72.539978,4137872000,126548.55000000255,1142
ff9863d3-3fa3-3861-900e-f00148f5d9c2,SHRINERS' HOSPITAL FOR CHILDREN - BOSTON  THE,51 BLOSSOM STREET,BOSTON,MA,02114,42.33196,-71.020173,6177223000,33012.21000000011,328
1bd44727-a8e3-322d-9c14-a5c529d6ce6d,VA Boston Healthcare System  Brockton Campus,940 Belmont Street,Brockton,MA,02301,42.065655,-71.05398,508-583-4500 Or 508-583-4500,58689.77000000068,492
be4c63f3-8d38-3fa9-a183-62045b5c85f6,VA Boston Healthcare System  Jamaica Plain Campus,150 South Huntington Avenue,Jamaica Plain,MA,02130,42.32809,-71.11076,617-232-9500,14181.389999999981,135
a7500efb-720b-3e44-990a-0c3edc5a3990,VA Boston Healthcare System  West Roxbury Campus,1400 VFW Parkway,West Roxbury,MA,02132,42.2793,-71.1657,617-323-7700,51430.480000000374,469
ae67223f-808e-33d3-a83e-066deebf35ed,VA Central Western Massachusetts Healthcare System,421 North Main Street,Leeds,MA,01053,42.345066,-72.68291,413-584-4040,43035.26000000024,391
05462bf2-25d4-3ecd-afdf-bb3e1140929a,Causeway OPC,251 Causeway St.,Boston,MA,02114,42.3665,-71.05931,800-865-3384,6586.88999999999,69
5573d6f9-681b-3f8f-9264-2da0fec29b1e,Lowell Veterans Community Care Center,130 Marshall Road,Lowell,MA,01852,42.62101,-71.31481,978-671-9000,10203.57999999999,83
5259a506-b80b-3ed5-9c30-83188eabf33e,Fitchburg Outpatient Clinic,881 Main Street,Fitchburg,MA,01420,42.586487,-71.80521,978-342-9781 Or 978-342-9781,132047.31000000256,1420
53b25c4b-e95f-3dd1-8e69-d427cdd83631,Framingham Outpatient Clinic,61 Lincoln Street  Suite 112,Framingham,MA,01702,42.28348,-71.41845,800-865-3384,9144.389999999992,81
c1c0c43e-ca87-3ee5-9549-be3f28afde81,Greenfield Outpatient Clinic,143 Munson Street,Greenfield,MA,01301,42.580627,-72.623634,413-773-8428 Or 413-773-8428,115025.00000000195,1222
e0c85f99-d520-3f26-8dcd-cfbf172afc5a,Haverhill Community Based Outpatient Clinic (CBOC),108 Merrimack St.,Haverhill,MA,01830,42.77449,-71.07901,800-838-6331,45927.90999999984,450
ed146054-9dd5-3f0b-83df-d29d983039c3,Hyannis Outpatient Clinic,233 Stevens St,Hyannis,MA,02601,41.651745,-70.294235,508-771-3190,14258.429999999971,167
3490b118-b33a-38e3-b763-f6f8f0039d6b,Lowell Outpatient Clinic,130 Marshall Road,Lowell,MA,01852,42.62101,-71.31481,800-865-3384,2376.4599999999996,24
8881e3ee-e915-31b3-867f-8e2fbe41e887,Lynn Community Based Outpatient Clinic (CBOC),225 Boston Road  Suite 107,Lynn,MA,01904,42.470093,-70.95994,800-838-6331,27613.34000000014,286
0b78995f-8b45-34d3-969d-afcc456bb1c7,New Bedford Outpatient Clinic,175 Elm Street,New Bedford,MA,02740,41.635937,-70.92991,508-994-0217,19786.639999999996,198
cb72194a-b1fd-3089-afb6-cb8bb61f4f9c,Plymouth Outreach Clinic,116 Long Pond Road,Plymouth,MA,02360,41.924313,-70.656654,800-865-3384,268634.1099999892,3328
18f774ab-db01-37ba-95c4-44c4eab47089,Quincy Outpatient Clinic,110 West Squantum Street,Quincy,MA,02169,42.272617,-71.03133,800-865-3384,58714.90000000013,538
37eb7694-de8f-3407-b95f-1a6a31fb0f6a,Springfield Outpatient Clinic,25 Bond Street,Springfield,MA,01104,42.110065,-72.60007,413-731-6000 Or 413-731-6000,31797.230000000232,378
d311e70d-86e7-3c03-b115-53892bcf7ef1,Worcester Outpatient Clinic,605 Lincoln Street,Worcester,MA,01605,42.297756,-71.766815,508-856-0104 Or 508-856-0104,18753.23999999999,200
3fbe3da9-8e41-3118-a253-7e2d1b46480f,Brockton Vet Center,1041L Pearl St.,Brockton,MA,02301,42.055134,-71.06661,508-580-2730 Or 508-580-2730,35337.15000000004,345
515117f0-f62e-36da-90e9-a004b40b2260,Cape Cod Vet Center,474 West Main Street,Hyannis,MA,02601,41.650307,-70.313515,508-778-0124 Or 508-778-0124,19166.570000000025,202
5b7aa5b4-aa6f-3acc-bd96-01ce774cb614,Lowell Vet Center,10 George Street  Gateway Center,Lowell,MA,01852,42.642513,-71.3062,978-453-1151,3668.0599999999977,35
7c530dcd-43f3-3f87-b41b-9f704205e0f8,New Bedford Vet Center,73 Huttleton Ave.  Unit 2,Fairhaven,MA,02719,41.6318,-70.8801,508-999-6920 Or 508-999-6920,8653.599999999991,75
78dbf052-6958-3c67-af45-b5a450b70fe4,Springfield Vet Center,95 Ashley Avenue  Suite A,West Springfield,MA,01089,42.139397,-72.62382,413-737-5167 Or 413-737-5167,26012.14000000005,251
3a2242e0-de37-303b-bdfc-e160c7eae518,Worcester Vet Center,255 Park Ave Suite # 900,Worcester,MA,01609,42.265556,-71.818665,508-753-7902,2815.579999999999,29
d5f4875f-6df2-32a8-a01b-47267f47fc49,TERRI PEREIRA,221 BOSTON POST RD,MARLBORO,MA,01752-3586,42.349617,-71.547214,508-481-5519,10203.639999999992,79
6725cc67-119b-38a5-9fc8-c104c2b7f993,PCP364,1010 MAIN ST,HOLDEN,MA,01520-1237,42.355801,-71.862574,508-829-9955,5037.239999999997,39
8994a6d2-3d4f-3a03-bbd8-974f1f2ae7d7,PCP541,400 W CUMMINGS PARK,WOBURN,MA,01801-6508,42.488769,-71.154438,781-938-1138,4778.919999999997,37
de1376c4-8f27-37ed-85da-6986458442f2,PCP661,28 GREEN ST,NEWBURY,MA,01951-1721,42.770406,-70.872417,978-463-0463,3616.4799999999987,28
eee23eb7-a476-37b0-9811-d57740145867,PCP1085,102 BRIDGE RD,SALISBURY,MA,01952-2410,42.844794,-70.841499,978-462-3287,3874.7999999999984,30
dd1f04b3-54cd-3ff0-96e3-a9aec2078301,PCP1444,5 E MAIN ST,MERRIMAC,MA,01860-2005,42.838603000000006,-71.011997,978-346-4450,1291.6000000000001,11
b0bc9a3f-9875-3126-913f-1e1c1a01eb16,PCP1470,1 BRANCH ST,METHUEN,MA,01844-1923,42.742751,-71.178588,978-984-5748,4003.959999999998,31
7a90ea23-6a9c-3bd0-a62a-a462adbeee60,PCP1742,132 FRONT ST,SCITUATE,MA,02066-1386,42.205062,-70.74297800000001,781-545-1008,3358.159999999999,26
3417f72c-36d3-3e9d-b28e-9f7a165c3ed8,PREMIUM EYE CARE  PC,738 HIGH ST,WESTWOOD,MA,02090-2503,42.219645,-71.216768,781-329-5454,4520.599999999998,36
0aef5bb7-af50-38c6-934a-8f5a25d81fd1,PCP1909,101 ADAMS ST,QUINCY,MA,02169-2022,42.261006,-71.008988,617-471-0307,12915.999999999989,100
2101d4e0-8f93-36bb-b044-f3ae97394376,PCP1967,7 TOWER ST,HUDSON,MA,01749-1720,42.389071,-71.545864,978-562-6011,4262.279999999998,33
0caacddb-cf07-336b-aaf7-7ab8144e808f,PCP2202,10 LELAND RD,NATICK,MA,01760-1930,42.284822,-71.348811,508-651-3485,9557.839999999993,75
b581c4b2-bfed-3409-a316-9700e598bd4b,PCP2614,565 TURNPIKE ST,NORTH ANDOVER,MA,01845-5936,42.673909,-71.091334,978-682-1579,3616.4799999999987,28
869ba21d-a974-3260-9752-4d1ba8d12f28,PCP2617,102 WESTLAND RD,WESTON,MA,02493-1341,42.360502000000004,-71.303433,781-894-8898,2583.2,20
3a6ab768-ec36-3147-a065-fe9b90362596,BURLINGTON VISION ASSOCIATES INC,385 CAMBRIDGE ST,BURLINGTON,MA,01803-1944,42.503227,-71.201713,781-272-9365,645.8,5
cbca2a7d-71ee-328e-8cfc-56f35f27d248,PCP2870,35 S ST,BARRE,MA,01005-8890,42.418848,-72.10659799999999,978-257-80620,8524.559999999994,66
59a4b308-6863-3bf6-8ef8-0e0f62d6b04e,PCP3075,709 PLAIN ST,MARSHFIELD,MA,02050-2105,42.115139,-70.71033100000001,781-794-2200,23377.959999999977,182
e52d8306-ea3c-35fe-8cf6-0c22fd7d0205,PCP3404,390 MAIN ST,WORCESTER,MA,01608-2505,42.269478,-71.807783,508-752-6081,3874.7999999999984,30
2ebefc07-59cd-361b-8179-085b58e89044,PCP3467,705 CENTRE ST,JAMAICA PLAIN,MA,02130-2598,42.33196,-71.020173,617-522-2921,5683.039999999996,44
414083bc-a154-3b45-bfbf-397a568e2362,MALCOLM AND MARTIN GREENE OD PARTNERS,31 SPRING ST,WATERTOWN,MA,02472-3473,42.369451,-71.177925,617-924-3343,3616.4799999999987,28
6b3080ef-1b74-33ae-aae8-5fdca88f4864,TOTAL WOMEN'S HEALTH CARE  INC.,46 DAGGETT DR,WEST SPRINGFIELD,MA,01089-4646,42.125451,-72.649734,413-747-4554,3616.4799999999987,28
129f29ed-9183-311f-a596-9c762d8cb08c,PCP3741,655 BOSTON RD,BILLERICA,MA,01821-5338,42.559673,-71.260947,978-670-2706,2970.6799999999994,23
207d191f-2b0f-31de-ab6a-52265042af59,PCP3850,1 W WATER ST,WAKEFIELD,MA,01880-2930,42.50436,-71.064061,781-932-0559,4262.279999999998,33
0de9633c-54dd-39cb-947c-8ab5ecdf93a2,PCP3874,2 SHAKER RD,SHIRLEY,MA,01464-2561,42.573654,-71.640986,978-425-6666,8912.039999999994,69
819655f8-a4ea-31a7-bd9e-b0ef44654ba9,PCP3894,285 MAIN ST,FITCHBURG,MA,01420-4303,42.601977000000005,-71.81586999999999,978-342-1837,2066.5600000000004,16
ce1ecbec-238f-3c1e-8ca6-6eb6b99e9e46,MEDFIELD EYE ASSOCIATES  INC,6 W MILL ST,MEDFIELD,MA,02052-1507,42.184599,-71.305307,508-359-4164,14336.759999999987,112
58fa71de-2295-33b8-8932-176a72078898,PCP4047,265 PLEASANT ST,ROCKLAND,MA,02370-1280,42.129251000000004,-70.908736,781-878-6962,14853.399999999987,116
b9c8d3c5-c419-3eb0-9122-0dea8e5664a3,PCP4083,BARRE OPTICAL,BARRE,MA,01005,42.418848,-72.10659799999999,978-355-2191,5166.399999999997,40
4f70b545-9a32-3b26-9abf-9a1e2041896c,PCP4377,100 CUMMINGS CTR,BEVERLY,MA,01915-6126,42.556659,-70.84496,267-879-1789,8266.239999999994,64
0df61196-c165-3212-9389-40d4bb4a39cb,PCP4391,540 MAIN ST,WINCHESTER,MA,01890-2940,42.452752000000004,-71.144319,617-331-3314,11495.23999999999,90
829380ee-2794-3710-a790-d547b74c9d3d,PCP4431,250 HAMPTON ST,AUBURN,MA,01501-2584,42.198708,-71.846006,508-832-4101,10074.479999999992,78
ad3a23c5-ee9b-361d-96ee-244364c9b63a,PCP4460,7 KIMBALL LN E,LYNNFIELD,MA,01940-2617,42.534146,-71.038333,978-290-7090,5166.399999999997,40
1c7f196c-c1db-37b1-8961-c9ac96267b63,PCP4547,240 CONCORD AVE,CAMBRIDGE,MA,02138-1337,42.376043,-71.11868,617-661-0511,3745.6399999999985,29
6ab2e1c9-e185-3282-a4e8-d200a6f2b36c,PCP4621,282 MAIN ST,GROVELAND,MA,01834-1229,42.7539,-71.015935,978-758-2087,11753.55999999999,91
6ae741a1-f01a-398e-86f6-ec5fb6c32f14,PCP4675,20 TREMONT ST,DUXBURY,MA,02332-5315,42.044307,-70.70604499999999,781-934-0953,3745.6399999999985,29
98b63415-bc21-3f43-b5ad-b78fb98c023d,PCP4717,214 N MAIN ST,WEST BRIDGEWATER,MA,02379-1251,42.021617,-71.026717,508-587-2858,4262.279999999998,33
088678d4-c735-3fa9-a22c-40272e071498,PCP4830,531 KING ST,LITTLETON,MA,01460-1279,42.535931,-71.490569,781-718-1916,8137.079999999994,63
f75bde75-e144-3ac3-9c56-9849a3eaad52,PCP4855,100 S MAIN ST UNIT C,MIDDLETON,MA,01949-2211,42.610513,-71.007118,978-390-1235,3487.319999999999,28
3adbc956-6e12-324b-bbf9-c297cbc531dc,PCP4890,301 EDGEWATER PL,WAKEFIELD,MA,01880-1281,42.50436,-71.064061,781-632-7708,5037.239999999997,39
04689c7d-e935-3248-9956-b21e6aa1f2ea,PCP4983,385 WASHINGTON ST,QUINCY,MA,02169-5630,42.261006,-71.008988,617-479-1434,3358.159999999999,26
56ed0ca7-04eb-35fe-928c-b3f90fea5e10,PCP5203,1234 BROADWAY,SOMERVILLE,MA,02144-1703,42.390445,-71.101033,781-608-6831,5812.199999999996,45
6fca7f82-5436-395c-b7d5-df9438fb4b2e,PCP5655,923 ROUTE 6A T,YARMOUTH PORT,MA,02675-2159,41.706920000000004,-70.221117,508-362-5080,11366.07999999999,88
6b8c49d2-cb48-38da-8a6f-87c29dad8c6c,PCP5847,10 CEDAR ST,WOBURN,MA,01801-6365,42.488769,-71.154438,978-886-8225,3874.7999999999984,30
3e91434d-5f96-3a78-9f37-cfa89603ae01,PCP5860,101 CENTRAL ST,ACTON,MA,01720-2725,42.483953,-71.43849499999999,978-263-6847,5037.239999999997,39
dcab655b-27dc-34cf-bc1a-557fd6a49d83,PCP6125,100 POWDERMILL RD,ACTON,MA,01720-5932,42.483953,-71.43849499999999,978-502-1729,2841.5199999999995,22
d26675bd-9ded-3c92-8e67-d708a500b598,PCP6235,1180 BEACON ST,BROOKLINE,MA,02446-3806,42.323853,-71.142003,617-232-7301,3616.4799999999987,28
09488bd8-69f9-36f8-aba6-9387f59168af,PCP6315,77 MACY ST,AMESBURY,MA,01913-4128,42.851284,-70.955837,978-792-4400,12141.03999999999,94
93c97d3b-076f-3314-a816-9b870b039697,PCP6334,7 KENT ST,BROOKLINE,MA,02445-7975,42.323853,-71.142003,617-730-4344,10203.639999999992,79
ab0015a1-33ba-3017-9ef3-1badf1de7bc6,PCP6606,10 MUZZEY ST,LEXINGTON,MA,02421-5222,42.445221999999994,-71.23001500000001,781-863-6100,5812.199999999996,45
090bf817-c9e3-3f12-a589-71fdce6e48bb,PCP7340,18 S MAIN ST,TOPSFIELD,MA,01983-1800,42.641379,-70.94344,978-887-5546,12657.67999999999,99
973e7384-d05b-32ad-a8cc-c39191ee9150,PCP7483,152 N ST,PITTSFILED,MA,01201,42.452045,-73.26054,413-443-8480,10074.479999999992,79
7fdd295c-3ec8-3fc4-b7c8-3662ec20a4d8,PCP7565,22 MILL ST,ARLINGTON,MA,02476-4744,42.418721999999995,-71.163912,617-584-5601,7749.599999999994,60
7a78e136-f3f9-336c-a1d3-61123212530b,PCP7566,131 W MAIN ST,ORANGE,MA,01364-1160,42.605437,-72.292074,413-325-1061,3616.4799999999987,28
69723e24-a5ed-3203-8397-6027e67a8bc3,MEDFIELD EYE ASSOCIATES  INC,77 W MAIN ST,HOPKINTON,MA,01748-1684,42.224096,-71.54048900000001,508-497-9500,9170.359999999993,71
add8e594-cd0f-36cf-af4b-4b22725bcded,PCP7966,133 FALMOUTH RD,MASHPEE,MA,02649-2611,41.617622999999995,-70.492713,508-566-9304,1679.0800000000004,13
d2edc181-c35d-3d2a-aee2-f16358d1dccc,PCP8352,116 PLEASANT ST,EASTHAMPTON,MA,01027-2756,42.265435,-72.670813,413-530-2318,5941.359999999996,46
6129179a-8705-372a-b425-9dc187f49ad9,PCP8391,23 MAIN ST,WATERTOWN,MA,02472-4403,42.369451,-71.177925,781-237-2778,4908.079999999997,38
6ffe62de-5d90-3cc7-be16-643a7496c817,PCP8458,601 AMHERST RD,SUNDERLAND,MA,01375-9466,42.466691,-72.546751,413-665-3336,9686.999999999993,75
d01fb520-993d-306a-beb2-607e18c95517,PCP8522,4 ELM ST,KINGSTON,MA,02364-1906,41.987196000000004,-70.74194200000001,781-936-8068,3616.4799999999987,28
98c716c1-1951-39a3-8c5e-fd57ac194208,PCP8861,378 WASHINGTON ST,SOUTH ATTLEBORO,MA,02703-5917,41.931653,-71.294503,508-761-5034,4391.439999999998,34
6e21d2e1-b52e-38fa-8254-8a797651c2d0,PCP8941,130 COLLEGE ST,SOUTH HADLEY,MA,01075-1537,42.256208,-72.58103,413-519-3439,3616.4799999999987,28
181b6c5a-b303-37f8-91a3-b096369cd02e,PCP8967,649 BROAD ST,WEYMOUTH,MA,02189-2041,42.206676,-70.94584499999998,781-335-1166,3616.4799999999987,28
fcae3c44-95b9-3a38-ba85-2f0385345e27,PCP9004,176 OLD COUNTY RD,WESTPORT,MA,02790-1172,41.579794,-71.081822,508-636-0703,7362.119999999994,57
32836213-4ac7-3021-aad8-6383f3ced351,PCP9022,1 HOLLYWOOD DR,GRAFTON,MA,01536-1614,42.209151,-71.683644,508-839-3616,20536.43999999998,159
2f2873eb-12da-3ab3-b19e-c3b1e5d1240b,PCP9030,379 COLLEGE ST,AMHERST,MA,01002-2391,42.363534,-72.50729100000001,413-253-2520,4262.279999999998,33
d4eeeb4f-9957-3a93-8b16-229fac0c6d3f,PCP9161,2 OAK ST,MASHPEE,MA,02649,41.617622999999995,-70.492713,508-477-2722,5166.399999999997,40
3e0bca72-a60c-3c55-8e24-555581ac9743,PCP9185,288 LITTLETON RD,WESTFORD,MA,01886-3522,42.585541,-71.44025,978-692-4476,11882.71999999999,93
891a2df6-59c8-3f38-8cf2-10f415e2cd84,PCP9187,191 BLUE HILLS PKWY,MILTON,MA,02186-1535,42.241557,-71.082432,617-696-1974,4520.599999999998,35
3fe0cf12-2a0b-33b2-b80c-45139c7889a9,PCP9455,2 COLUMBIA RD,PEMBROKE,MA,02359-1842,42.067803999999995,-70.805713,781-826-2270,3745.6399999999985,29
473293d9-b54a-384c-9146-05416f9bdac4,PCP9643,173 MOUNT AUBURN ST,WATERTOWN,MA,02472-4005,42.369451,-71.177925,617-396-7687,4908.079999999997,38
d6695482-6857-3a6a-9264-97a8a0147afd,PCP9682,70 HIGH ST,ROCKPORT,MA,01966-2183,42.656952000000004,-70.60463,978-546-6102,4520.599999999998,35
502a2ddb-e54a-3b43-9ad9-8103221c44d6,PCP9755,7 BARON WAY,LITTLETON,MA,01460-1122,42.535931,-71.490569,978-580-1342,8524.559999999994,66
bf5b8173-2d02-342a-b46e-f7814724d0c0,PCP9942,39 GREEN ST,MILTON,MA,02186-2318,42.241557,-71.082432,617-361-1169,1808.2400000000005,15
a0beef0e-b8a5-3261-ad57-356e65749977,PCP10032,72 TAUNTON ST,PLAINVILLE,MA,02762-2132,42.012797,-71.336578,508-699-2228,1420.7600000000002,11
06eff9e0-c5b4-39ed-8273-2f29cf5d3185,PCP10127,464 GRANITE AVE,MILTON,MA,02186-5625,42.241557,-71.082432,617-698-0998,3616.4799999999987,28
d25fc46d-668a-360b-b1ec-255794e8d75b,VEIN AND AESTHETIC CENTER OF BOSTON,333 ELM ST,DEDHAM,MA,02026-4530,42.246871999999996,-71.179462,781-251-0029,3874.7999999999984,30
777aafd6-1743-3ea6-89ff-99d9e3608aad,PCP10201,616 MAIN ST,DENNIS,MA,02638-1906,41.706123,-70.164823,508-385-2550,7362.119999999994,57
22f35ea9-04e3-3ea7-92e3-c6bfd6530d81,PCP10403,85 WALSH ST,RANDOLPH,MA,02368-2648,42.178993,-71.052654,401-261-5131,6199.679999999996,48
58bc03cf-cbfc-3c6e-b673-3d3c9e0ccd0a,PCP10626,352 PARK ST,NORTH READING,MA,01864-2155,42.578222,-71.084398,978-664-1151,3874.7999999999984,30
2cdbd26a-7304-3a85-93bc-9e92c6a91f00,PCP10689,403 HIGHLAND AVE,SOMERVILLE,MA,02144-2530,42.390445,-71.101033,617-666-5800,1937.4000000000005,15
5b8f3d4e-7528-32cb-82b3-356cbc793d15,PCP10748,120 SCHOOL ST,LEXINGTON,MA,02421-7432,42.445221999999994,-71.23001500000001,781-354-6022,3745.6399999999985,29
036e3ac3-cf03-3aef-982e-cce75baed820,PCP10937,6 MAIN ST,CHARLTON,MA,01507-1354,42.133935,-71.968025,508-248-4318,9299.519999999993,72
76c6ee72-783c-3ee1-9c74-01118b38721b,PCP10989,8 WASHINGTON PL,BRAINTREE,MA,02184-3258,42.205416,-71.00216800000003,781-848-2131,7362.119999999994,57
08fa3488-4c3c-3590-a1cb-85eb5fc98b54,PCP11078,2 COLUMBIA RD,PEMBROKE,MA,02359-1842,42.067803999999995,-70.805713,781-826-5333,8007.919999999994,62
ce9c2dda-23ac-35e3-9051-a71a04bfeb5a,PCP11113,465 NASHUA RD,DRACUT,MA,01826-2907,42.679722999999996,-71.30068,617-549-9711,4262.279999999998,33
438e9d44-1f8f-3c7f-807c-754e714c4e29,PCP11164,441 WASHINGTON AVE,CHELSEA,MA,02150-3679,42.396824,-71.031348,617-889-5528,7491.279999999994,58
e95e99e4-9db2-3938-a93f-9f80ed2686ad,PCP11366,779 WASHINGTON ST,CANTON,MA,02021-3022,42.175737,-71.125385,508-423-3483,9686.999999999993,75
ac674642-9d8d-397d-a025-c9781499190f,PCP11617,31 COCHITUATE RD,WAYLAND,MA,01778-1804,42.360427,-71.361099,508-358-7090,5295.559999999997,41
6ba56742-6822-3d8f-8c97-e4bfed99b9d4,PCP11655,130 COLLEGE ST,SOUTH HADLEY,MA,01075-1493,42.256208,-72.58103,413-813-7021,11495.23999999999,89
a856a319-f212-34ed-a1e1-d94fd73e0c93,PCP11793,1105 LAKEVIEW AVE,DRACUT,MA,01826-4745,42.679722999999996,-71.30068,978-957-5665,10591.119999999992,82
043c2193-7fbd-3a5c-ad68-275230f1f3d4,PCP11873,DOVER MEDICAL PROFESSIONAL BUILDING,DOVER,MA,02030-2374,42.234159999999996,-71.291167,508-785-2319,8007.919999999994,62
4d4f0156-9110-3edd-aa94-53f4d58fce4a,PCP11928,55 PUTNEY RD,LEVERETT,MA,01054-9770,42.468897999999996,-72.48457900000001,413-348-6257,8524.559999999994,66
92a2baa4-3c1f-3479-9d37-47bb0598277f,PCP12009,1355 MAIN ST,HOLDEN,MA,01520-1060,42.355801,-71.862574,508-829-6731,5941.359999999996,46
daa4c408-5fc5-32a8-881e-12181e8b8598,PCP12132,11 PROSPECT ST,SHERBORN,MA,01770-1302,42.231947,-71.372963,508-545-1843,5683.039999999996,44
0eba0f93-a5fa-30e3-a452-f54b842d1d33,PCP12293,53 LANGLEY RD,NEWTON CENTER,MA,02459-1945,42.331876,-71.208402,617-645-6885,5166.399999999997,40
a2ca147a-a91c-37db-94da-3419aac8a25c,PCP12349,24 ROCKLAND ST,HANOVER,MA,02339-2226,42.122956,-70.85631,781-826-2882,4778.919999999997,37
ccafb5f7-0a90-3c10-9803-d2e8798178a4,PCP12382,71 ADAMS ST,MILTON,MA,02187,42.241557,-71.082432,617-686-9378,3616.4799999999987,28
bf338d56-67c1-3bfa-827b-c51d8400feb6,PCP12747,48 N PLEASANT ST,AMHERST,MA,01002-1758,42.363534,-72.50729100000001,413-253-8900,4003.959999999998,31
da799735-2a0b-3a36-8b5c-95e8b5023e06,PCP12877,142 N MAIN ST,BELCHERTOWN,MA,01007-9433,42.27901,-72.400468,413-323-1196,2712.3599999999997,21
b6290f94-443f-35d0-8cff-3faae1f9f288,PCP12989,26 CHESTNUT ST,ANDOVER,MA,01810-3600,42.648044,-71.161751,978-475-7669,8782.879999999994,68
bc82cb1f-42c3-3a6b-b10c-817591baa673,PCP13076,259 MASSACHUSETTS AVE,ARLINGTON,MA,02474-8406,42.418721999999995,-71.163912,781-316-1771,2970.6799999999994,23
70b6b09b-71a1-3dcc-bf7c-4982fb4879ec,PCP13578,31 SCHOOL ST,HYANNIS,MA,02601-3117,41.647227,-70.249978,508-790-8787,6457.999999999995,50
fa120db4-e034-3fa3-a831-d343d5445bb8,PCP13750,315 CENTRAL ST,SAUGUS,MA,01906-2342,42.468432,-71.01394599999999,781-231-2292,7749.599999999994,60
7035b5cf-e87e-3ad9-8872-8c53e265527d,PCP13778,534 EASTERN AVE,LYNN,MA,01902-1539,42.474862,-70.96218499999999,781-599-3500,4262.279999999998,33
99539e93-a754-336f-8dfa-6616c8d5f5a4,PCP13828,342 GREENWOOD ST,WORCESTER,MA,01607-1729,42.269478,-71.807783,508-798-3000,8524.559999999994,67
2b6e71e5-9161-326f-b3d9-67c93b2794f4,PCP13992,474 MAIN ST,GREENFIELD,MA,01301-3315,42.614671,-72.597063,315-391-7955,4391.439999999998,34
b1e66bcc-ea78-375d-9586-b9c4e9e12d32,PCP14104,214 COMMERCIAL ST,MALDEN,MA,02148-6712,42.42938,-71.058706,781-397-6830,2970.6799999999994,23
eff5220a-a350-3459-bfcc-6f515d1a27a2,PCP14190,70 BROADWAY ST,WESTFORD,MA,01886-2148,42.585541,-71.44025,978-337-3676,3487.319999999999,27
63b12098-a29c-357d-b1c0-4dcc2f0b6d6c,PCP14226,250 BOSTON TURNPIKE,SHREWSBURY,MA,01545-5265,42.284766999999995,-71.714228,508-791-6809,3616.4799999999987,28
1e4eec39-df1e-3c10-8132-6c74bbcaf05b,PCP14240,27 RAILROAD AVE,DUXBURY,MA,02332-3877,42.044307,-70.70604499999999,781-934-6945,9686.999999999993,75
0e395cae-a0c5-3794-9a77-19654a835c12,PCP14251,218 BOSTON ST,TOPSFIELD,MA,01983-2200,42.641379,-70.94344,978-887-01011,7491.279999999994,58
59a3a46d-e206-3052-8c82-cbafc00cf1ba,PCP14572,512 MAIN ST,SHREWSBURY,MA,01545-6405,42.284766999999995,-71.714228,508-842-2797,15111.719999999987,117
7828ee9b-0cbe-366a-a377-a9552b7e8d8b,PCP14628,100 CUMMINGS CTR,BEVERLY,MA,01915-6122,42.556659,-70.84496,617-549-6280,8395.399999999994,65
d0416884-6f04-370b-981d-ac31633a63c1,PCP14669,40 BRATTLE ST,CAMBRIDGE,MA,02138-3712,42.376043,-71.11868,617-547-3310,4003.959999999998,31
966874de-c438-32e7-b720-8a798a7c80e5,PCP15183,89 ABBOTTSFORD RD,BROOKLINE,MA,02446-5871,42.323853,-71.142003,617-734-5042,4908.079999999997,38
ff917dd4-ffbb-3f4c-b2df-445a7e9d29aa,PCP15541,35 BURT ST,NORTON,MA,02766-2569,41.965340999999995,-71.18178,508-285-3370,9299.519999999993,72
a64cfa86-78c6-3a12-8dd4-c0acde70e3f0,PCP15613,20 PARK AVE,WORCESTER,MA,01605-3911,42.269478,-71.807783,508-753-1056,4908.079999999997,39
3347bc32-cba9-368f-9bf6-3d0f3389874c,PCP15929,67 HATHERLY RD,SCITUATE,MA,02066-3455,42.205062,-70.74297800000001,617-312-2452,11366.07999999999,88
8e28c77b-7ac8-3b1e-9128-3d0143b39810,PCP16195,178 NO PLEASANT ST,AMHERST,MA,01002-1978,42.363534,-72.50729100000001,413-253-7285,7491.279999999994,58
b4bfba55-a7c9-3a74-a8e5-84ee204fa87f,PCP16250,159 SAMOSET ST,PLYMOUTH,MA,02360-4815,41.897892,-70.62403,508-746-1990,6328.839999999996,49
f6f5b642-1bfb-3f7b-bce3-f883eb452bc3,PCP16322,411 ROUTE 6A 5,YARMOUTH PORT,MA,02675-1843,41.706920000000004,-70.221117,508-280-8385,5037.239999999997,40
95394b17-2f1f-3c42-b4e2-233704fb9195,PCP16338,65 POST OFFICE PARK,WILBRAHAM,MA,01095-1159,42.126883,-72.430952,413-366-1717,2970.6799999999994,23
ef93e7db-4347-3133-a6a0-2f33d8611a4a,PCP16465,132 CENTRAL ST,FOXBORO,MA,02035-2422,42.064024,-71.248401,508-543-9215,4391.439999999998,34
47732fb1-0cf7-3bbd-a0ba-d76ecc20180f,PCP16647,27 COLLEGE ST,SOUTH HADLEY,MA,01075-1155,42.256208,-72.58103,413-325-3423,12270.19999999999,96
29564e82-e7f8-3aeb-8d9c-1e3fd73ca340,PCP16674,1 W UNION ST,ASHLAND,MA,01721-1463,42.257754999999996,-71.473526,508-881-4443,16015.839999999986,125
46c3f041-1c3b-3f0f-8d06-464cf87c4bf3,PCP16709,3 PARSONS DR,SWAMPSCOTT,MA,01907-2919,42.468059000000004,-70.89126,781-596-1729,2324.88,18
f7e2dff6-41b5-381a-a073-a4e7224fdc8d,PCP16836,47 COLUMBUS AVE,SOMERVILLE,MA,02143-2018,42.390445,-71.101033,617-784-8163,6587.159999999995,51
6002ae67-ed4e-36a4-9e76-5eefc37255cb,PCP17024,755 GRATTAN ST,CHICOPEE,MA,01020-1238,42.175668,-72.572257,413-532-1040,8137.079999999994,64
cfefc3e1-bedd-379a-a1ff-33e84c2e39f9,PCP17060,793 MAIN RD,WESTPORT,MA,02790-4358,41.579794,-71.081822,781-789-1236,2195.7200000000003,17
44081fac-9667-30c3-9407-158a19142716,PCP17171,275 MILLWAY,BARNSTABLE,MA,02630-1102,41.662727,-70.357208,508-362-4416,7878.759999999994,61
05764248-1536-38a2-b242-e803866c30db,INTEGRATED COUNSELING CENTERS  INC.,64 INDUSTRIAL PK RD,PLYMOUTH,MA,02360,41.897892,-70.62403,508-830-9562,645.8,5
d627302a-2cf7-3b3b-ac07-dabb3db97d8a,PCP17647,1101 BEACON ST,BROOKLINE,MA,02446-5587,42.323853,-71.142003,617-694-2441,2841.5199999999995,23
7a0b9372-1373-333a-9846-0e6c0030ba45,PCP17971,66 MAIN ST,LAKEVILLE,MA,02347-1608,41.834412,-70.957166,508-947-0747,3099.8399999999992,24
8c220acb-0963-3c25-9402-c96a4a0aa598,PCP18093,7 PARKER RD,OSTERVILLE,MA,02655-2044,41.662727,-70.357208,508-420-8859,6457.999999999995,51
707bfbf6-85d4-375f-b12a-43ff210ec187,PCP18175,432 GREENFIELD RD,MONTAGUE,MA,01351-8925,42.556616999999996,-72.517075,413-772-0612,10332.799999999992,80
152ce802-47ac-3bbf-8264-f118c514503d,PCP18221,266 1ST PARISH RD,SCITUATE,MA,02066-3835,42.205062,-70.74297800000001,781-545-4659,3874.7999999999984,30
3e54a0c1-21ed-34ea-9696-e64a09626bcc,PCP18347,33 PILGRIM PATH,CARLISLE,MA,01741-1840,42.53662,-71.36183199999999,978-371-9797,17307.439999999984,134
ebe1b159-9d15-3ca1-ba8d-8182b404d4b0,PCP18780,40 E MAIN ST,WARE,MA,01082-1331,42.275462,-72.280158,413-967-6681,1679.0800000000004,13
9ad6e1c5-f73c-3b69-9fb5-a90e294388c7,PCP18978,1415 BEACON ST,BROOKLINE,MA,02446-4812,42.323853,-71.142003,617-651-0260,5424.719999999997,42
c9b5e4bb-d4f5-3c60-902d-bd36445df001,PCP19031,275 TURNPIKE ST,CANTON,MA,02021-2353,42.175737,-71.125385,617-777-3261,4520.599999999998,35
1f8bf1bc-2c07-3ea6-9782-0a8eb036ba4f,PCP19450,741 SALEM ST,LYNNFIELD,MA,01940-2344,42.534146,-71.038333,781-592-2225,9816.159999999993,76
4b7752e1-73b6-3ef8-b8a5-a9d1430a004e,PCP19685,130 COLLEGE ST,SOUTH HADLEY,MA,01075-1493,42.256208,-72.58103,413-230-0479,11236.919999999991,88
779935ac-770d-3f96-9870-c38771f2c81b,PCP19714,22 MT AUBURN ST,WATERTOWN,MA,02472,42.369451,-71.177925,617-232-2858,4262.279999999998,33
86f868e9-3325-3019-98d9-34ca2dc11f20,TANZMAN MASELLI AND ASSOCIATES PC,151 ASHLAND ST,N ADAMS,MA,01247-4522,42.675549,-73.11810799999998,413-662-2020,13045.159999999989,101
cc648e4d-ae3a-3933-930e-f1f34189eb97,PCP19816,361 WASHINGTON ST,WESTWOOD,MA,02090-1801,42.219645,-71.216768,781-326-3571,4262.279999999998,33
1607e74e-eb20-3211-9558-1005aac29c94,PCP19836,1 PLEASANT ST,MAYNARD,MA,01754-1360,42.425955,-71.45625600000001,978-897-8276,17824.079999999984,139
c08ed377-c346-337a-8bf0-75e7ca2cab1f,PCP20037,825 BROADWAY,RAYNHAM,MA,02767-1734,41.930477,-71.046214,508-822-6650,7749.599999999994,60
1f2b3666-5e34-3e83-8a47-076f8f9c161e,PCP20187,1234 BROADWAY,SOMERVILLE,MA,02144-1703,42.390445,-71.101033,857-998-0747,8653.719999999994,67
46084d3f-e6a2-37bc-b830-9b15674f7cae,PCP20314,117 MAIN ST,SPENCER,MA,01562-2125,42.247211,-71.991867,508-885-2500,3874.7999999999984,30
4cd7de25-382b-30f8-94d5-e353e3eca86a,PCP20489,2 WHITING RD,DOVER,MA,02030-2451,42.234159999999996,-71.291167,508-785-1770,10074.479999999992,79
481c475b-f180-398d-a84e-31bfecad08f3,PCP20576,39 W PLAIN ST,WAYLAND,MA,01778-4409,42.360427,-71.361099,508-651-3887,3745.6399999999985,29
f6cdf354-ad00-34c8-8426-db7e84c16972,PCP20910,174 OXFORD N ST,AUBURN,MA,01501-1529,42.198708,-71.846006,508-832-6277,13820.119999999988,108
0fbb860f-6914-350f-ad9c-a2930a3a915c,PCP21121,797 WASHINGTON ST,NEWTON,MA,02460-1634,42.331876,-71.208402,617-448-1439,3616.4799999999987,28
118f853d-ff24-3521-9a65-43e5bcdad0e5,PCP21285,319 ELLIOTT ST,BEVERLY,MA,01915-2421,42.556659,-70.84496,978-927-2607,6587.159999999995,51
b3e30964-03f2-3136-8347-255d16f65d93,PCP21436,379 MAIN ST,YARMOUTH PORT,MA,02675-1819,41.706920000000004,-70.221117,508-362-8828,6587.159999999995,52
fb8c2c36-8f65-355e-9ca4-d4771d4dda08,JEFFREY L MORRILL OD PC,480 W CENTRAL ST,FRANKLIN,MA,02038-2902,42.084858,-71.41057099999998,508-528-2040,1679.0800000000004,13
d66a9c9c-f461-34c8-a7cc-c0a363c1d802,PCP21774,68 MAIN ST,ANDOVER,MA,01810-3834,42.648044,-71.161751,978-474-4478,12786.83999999999,99
44b38ef4-4a7d-32e7-a915-26db39eeae0c,PCP21796,72 WESTBORO RD,UPTON,MA,01568-1034,42.176526,-71.603588,508-603-1667,4262.279999999998,33
cd96a437-968d-3e65-9f0e-89b975450c15,PCP22031,1563 FALL RIVER AVE,SEEKONK,MA,02771-3736,41.839797999999995,-71.31804699999999,508-336-2663,3616.4799999999987,28
cdabf878-6d1f-3bfd-a266-40efd24af388,PCP22327,1415 BEACON ST,BROOKLINE,MA,02446-4819,42.323853,-71.142003,617-734-6500,6199.679999999996,48
cde4540b-2108-37b4-9554-99e2192fff05,PCP22497,241 KING ST,NORTHAMPTON,MA,01060-2341,42.327044,-72.67463000000001,413-585-1219,1162.44,10
a9deaecc-66f6-3361-ab5c-69eb99022f09,PCP22597,71 PARKER RD,WELLESLEY,MA,02482-2230,42.305932,-71.282917,781-254-9525,7103.799999999995,55
452a0f37-f2b9-3186-9517-4f15d2f5a3c0,PCP22871,145 FAUNCE CORNER RD,N DARTMOUTH,MA,02747-1263,41.646686,-70.999158,508-999-4045,5295.559999999997,41
1c302ea6-4c70-3390-b96e-59ab9d699c8b,PCP23081,599 CANAL ST,LAWRENCE,MA,01840-1244,42.700272999999996,-71.161357,978-686-2199,258.32,2
c0388410-92ac-3f24-9bf7-8015960436e3,WILLIAM H LANGFIELD JR OD PC,598 COUNTY ST,SOMERSET,MA,02726-4204,41.738479,-71.165065,508-676-8167,5166.399999999997,40
7390dcb5-3132-3125-a63e-c9646de2c67a,PCP23275,28 HIGH ST,GREENFIELD,MA,01301-2973,42.614671,-72.597063,413-774-5450,3487.319999999999,27
7d31f619-8d2b-394c-8b4c-d0461f04c958,PCP23478,33 ELECTRIC AVE,FITCHBURG,MA,01420-7900,42.601977000000005,-71.81586999999999,978-343-3001,3358.159999999999,26
0c1e2388-7c7e-352e-a017-3bef1684c147,PCP23687,329 BOSTON ST,LYNN,MA,01905-1604,42.474862,-70.96218499999999,781-596-1714,3874.7999999999984,30
0dba751e-e915-3220-80cd-dd98c680c334,PCP24095,466 MAIN ST,WAREHAM,MA,02571-2117,41.76104,-70.701779,508-648-7898,5553.8799999999965,44
e301024b-6fe6-3c4a-b0e6-ab929cc18ef7,PCP24341,77 E MERRIMACK ST,LOWELL,MA,01852-1900,42.63898,-71.321141,978-454-0570,4778.919999999997,37
5ec449c0-7654-355d-9f8e-49c975d426b0,PRESCRIPTION ORTHOPEDIC AND SPORTS THERAPY,223 CHIEF JUSTICE CUSHING HWY,COHASSET,MA,02025-1391,42.262428,-70.79888299999999,781-838-8767,6974.639999999995,54
becb6839-3bbe-3228-b90e-c4a826ed7c53,PCP24596,50 UNION ST,NEWTON,MA,02459-2223,42.331876,-71.208402,617-527-5528,7362.119999999994,57
98c52d20-ca76-3d38-9d19-125b4f45d9ab,PCP24654,113 BELMONT ST,BELMONT,MA,02478-3603,42.395317,-71.180284,617-484-4393,6457.999999999995,50
ea4ac0af-e1d9-36c9-b4ec-ec31024335d8,JAY L. COHEN  MD  PC,464 HILLSIDE AVE,NEEDHAM,MA,02494-1228,42.281593,-71.242414,781-449-3588,3616.4799999999987,28
5eeacb40-eaaa-3a42-b208-0b257414c2a0,PCP25231,191 LOWER ST,SHELBURNE FLS,MA,01370-9402,42.609509,-72.74698000000002,413-625-9530,3874.7999999999984,30
664d40fc-da91-3608-8276-e698015c7147,PCP25243,113 BELMONT ST,BELMONT,MA,02478-3603,42.395317,-71.180284,617-489-6636,5941.359999999996,47
279b2a85-ab64-3dec-90df-fbca8b479db5,PCP25692,48 CHERRY ST,WENHAM,MA,01984-1313,42.600633,-70.883303,978-473-6078,10074.479999999992,78
b3abd026-7e38-369d-837d-26d8ef20688d,PCP25722,236 HIGHLAND AVE,SOMERVILLE,MA,02143-1495,42.390445,-71.101033,617-666-4400,3616.4799999999987,28
725b1a09-e14e-390a-9313-36fb80e985cf,PCP25737,20 E EMERSON ST,MELROSE,MA,02176-3521,42.455723,-71.05901899999999,781-665-5656,645.8,5
6d26aabf-75b2-3cf1-8d1c-8b93357b9edb,PCP25777,108 LITTLETON RD,WESTFORD,MA,01886-3114,42.585541,-71.44025,978-692-9541,5683.039999999996,44
f8b7d134-89fd-3277-91ac-d92f6a44999b,PCP25786,221 MOUNT AUBURN ST,CAMBRIDGE,MA,02138-4849,42.376043,-71.11868,617-797-7348,3874.7999999999984,30
1f333977-ac45-3bef-8e02-48c2aff5491a,PCP25882,23 WATER ST,HOLLISTON,MA,01746-2364,42.195951,-71.45343000000001,508-429-8767,8524.559999999994,67
467ed98c-2b2b-349c-9585-c978985e1ebf,PCP25980,101 MAIN ST,MEDFORD,MA,02155-4540,42.423844,-71.10923100000001,781-396-0120,1937.4000000000005,15
e8134182-3ed9-3b41-abdc-9f4a47b23f2d,PCP25990,33 ELECTRIC AVE,FITCHBURG,MA,01420-7954,42.601977000000005,-71.81586999999999,978-343-4747,6845.479999999995,53
a997f4a0-b480-3556-bc75-5bbeb616e66a,PCP26327,1342 BELMONT ST,BROCKTON,MA,02301-4437,42.082543,-71.024638,508-895-92232,2712.3599999999997,21
e89fc67f-7cf0-3687-bf77-b4afa1a88fd8,PCP26392,183 W STATE ST,GRANBY,MA,01033-9611,42.244949,-72.50014300000001,413-222-0998,23119.639999999978,180
7fb56fd2-71ad-336a-9204-57765bd1e5d4,PCP26624,425 N RD,HAMPDEN,MA,01036-9535,42.071188,-72.41771800000001,413-566-8503,4649.7599999999975,36
504c29d0-6f98-3282-a3fe-962df55f7808,PCP26696,505 NASHUA RD,DRACUT,MA,01826-1929,42.679722999999996,-71.30068,978-674-0271,5037.239999999997,39
d01c8e08-bc31-3cb5-aa16-8328697cffc6,PCP26723,175 DWIGHT RD,LONGMEADOW,MA,01106-1767,42.047565000000006,-72.57113000000001,413-627-0763,8524.559999999994,66
841a1423-b723-32c7-a512-161310612a3e,MOUNT HOPE PHYSICAL THERAPY,1738 GAR HWY,SWANSEA,MA,02777-3906,41.758163,-71.21418100000001,508-379-0090,12399.35999999999,97
9f771fe7-4577-3034-a17d-a692f35931a6,PCP27202,1200 CONVERSE ST,LONGMEADOW,MA,01106-1760,42.047565000000006,-72.57113000000001,413-567-0708,4908.079999999997,38
1055cb51-3d14-3737-b4a8-0203cd752ac9,PCP27216,20 LONG MEADOW RD,LINCOLN,MA,01773-4810,42.425506,-71.310812,781-259-3434,5295.559999999997,41
aaf9b793-71b4-346d-baea-62b744d94494,PCP27271,537 ROUTE 28,HARWICH PORT,MA,02646-1894,41.670154,-70.06519399999999,508-430-8672,5553.8799999999965,43
d52e5070-1979-3e4d-a357-ff7c1b26a07b,PCP27729,1344 MAIN ST,WALTHAM,MA,02451-1617,42.388921,-71.24226800000001,781-547-6772,4003.959999999998,31
7a58857e-6c97-3bd9-8867-f02eb9421c03,PCP27809,691 MASSACHUSETTS AVE,ARLINGTON,MA,02476-4991,42.418721999999995,-71.163912,617-242-4228,8653.719999999994,67
bd8a0ce6-a429-39aa-9d4d-309fd7627152,PCP27821,875 MASSACHUSETTS AVE,CAMBRIDGE,MA,02139-3067,42.376043,-71.11868,617-910-7143,4133.119999999998,32
e3b35f24-f9a7-3dc4-bf5a-515b4d76884f,PCP27827,44 WOOD AVE,MANSFIELD,MA,02048-1255,42.017302,-71.21641,508-339-2856,9170.359999999993,71
b34ef270-b933-3be6-9dc0-8bc3819b7db8,PCP27881,77 E MERRIMACK ST,LOWELL,MA,01852-1900,42.63898,-71.321141,978-452-37117,9299.519999999993,72
a44b37da-aa9b-37f0-993e-26e58974e086,PCP27951,727 HIGH ST,WESTWOOD,MA,02090-2598,42.219645,-71.216768,781-329-5446,9299.519999999993,73
52aaa98d-e9d4-32ed-a854-d2e221d29947,PCP28131,30 DOMINO DR,CONCORD,MA,01742-2802,42.462911,-71.364496,978-263-1611,1679.0800000000004,14
d224247d-6fc0-395e-9bd2-b4c325d55b5d,PCP28161,162 GREAT RD,ACTON,MA,01720-5760,42.483953,-71.43849499999999,978-264-0060,6328.839999999996,49
a3f3508a-4ed2-3a9e-8580-0d325e3d3457,STURBRIDGE HUMAN SERVICES INC,450 MAIN ST,FISKDALE,MA,01518-1296,42.124762,-72.110888,508-347-7755,8007.919999999994,62
2f00d1cf-c489-345f-9747-16b68f881b70,PCP28434,1093 BEACON ST,BROOKLINE,MA,02446-5623,42.323853,-71.142003,617-734-6614,6845.479999999995,53
07c54b7a-99ed-3a14-a8c1-922986a51ec3,PCP28493,1040 GREAT PLAIN AVE,NEEDHAM,MA,02492-3014,42.281593,-71.242414,781-449-0929,7491.279999999994,58
b6037f77-8333-33c4-9fec-3619a9ed7ffc,PCP28613,1214 PARK ST,STOUGHTON,MA,02072-3738,42.119006,-71.10365,781-344-5087,6845.479999999995,53
9190956e-d4b8-32c3-b4fa-aed1e126018c,PCP28811,150 YORK ST,STOUGHTON,MA,02072-1881,42.119006,-71.10365,781-297-1416,4649.7599999999975,36
18e8ff71-6e32-3abc-8ca1-1b5ffc017f38,PCP28839,55 PITTSFIELD RD,LENOX,MA,01240-2185,42.367858,-73.269763,413-637-4009,7878.759999999994,61
6aeb37bd-8ad5-39d5-b021-d09c1e55c3d5,PCP28914,15 STORY ST,CAMBRIDGE,MA,02138-4950,42.376043,-71.11868,617-868-3353,1679.0800000000004,13
add4291d-91f0-33a3-9fdf-5f32efbe824d,PCP28960,84 COTTAGE ST,SHARON,MA,02067-2133,42.108463,-71.185182,781-784-1739,4649.7599999999975,36
568a23fa-2c6c-3789-8ed5-4710599dcd1b,PCP29317,1101 BEACON ST,BROOKLINE,MA,02446-5587,42.323853,-71.142003,617-734-4644,5037.239999999997,39
8e6c904a-a1a8-33fc-be79-27e41933b9cc,PCP29348,14 PRENTICE AVE,MILFORD,MA,01757-2026,42.158691999999995,-71.521419,508-634-7799,2195.7200000000003,17
74f30d9f-4d98-39ff-a337-9c4c687806a5,PCP29415,1445 MAIN ST,TEWKSBURY,MA,01876-2082,42.612088,-71.227845,978-851-4251,9428.679999999993,73
fdc73f71-fd8d-3d29-90fc-c34a9d010a23,PCP29500,23 WATER ST,HOLLISTON,MA,01746-2376,42.195951,-71.45343000000001,508-429-5133,5295.559999999997,41
1ca2afca-6817-3a22-81d7-70b3b1366183,PCP29525,65 NEPONSET AVE,FOXBOROUGH,MA,02035-4022,42.061338,-71.245802,508-543-7160,4908.079999999997,38
6ccbd008-ac39-3ed1-b73b-96416d6a06ea,PCP30008,45 MAIN ST,WAREHAM,MA,02571-2152,41.76104,-70.701779,508-295-5104,2454.04,19
cdef2b44-68c9-33a3-8965-74043edd6fc5,PCP30152,35 POST OFFICE PARK,WILBRAHAM,MA,01095-1186,42.126883,-72.430952,413-596-6922,2324.88,18
2419d046-8d43-3d19-a402-16ace78ac726,PCP30178,72 ROUTE 28,WEST HARWICH,MA,02671-1112,41.693632,-70.105298,508-430-0693,7878.759999999994,61
ff76282f-7968-39c7-82f9-2d86c93990a6,PCP30512,10 RICHARDS AVE,PAXTON,MA,01612-1120,42.311693,-71.940282,508-757-0376,4520.599999999998,35
f5015cc3-23f6-3684-9b95-0425c1ba7cd1,PCP30543,5 WAUMBECK ST,QUINCY,MA,02171-1026,42.261006,-71.008988,617-328-6785,4133.119999999998,32
a04b0d38-3327-3763-8998-3c05ba9c4d47,PCP30628,572 BOSTON RD,BILLERICA,MA,01821-3761,42.559673,-71.260947,781-696-2070,4520.599999999998,35
0900c1a2-5e32-3df6-8961-d25870bbc4a7,PCP30650,ONE ARNOLD CIRCLE,CAMBRIDGE,MA,02139,42.376043,-71.11868,617-492-7800,4649.7599999999975,37
ac06e0ac-ff61-30aa-9a9d-7856c2a6495c,PCP30726,162 COBBLE LANE,SHEFFIELD,MA,01257-0274,42.10365,-73.359887,413-229-3634,11107.759999999991,86
43659621-b75d-39b6-ae82-01e3c8c9f966,PCP30919,800 S MAIN ST,MANSFIELD,MA,02048-3144,42.017302,-71.21641,508-261-2928,4649.7599999999975,36
0e51f39c-5a55-3375-a82b-3215bfd59c55,PCP30931,92 HIGH ST,MEDFORD,MA,02155-3850,42.423844,-71.10923100000001,781-391-8899,1937.4000000000005,15
2790978b-78de-3054-b7ec-b9fe16a571bc,PCP31014,200 CARLISLE RD,BEDFORD,MA,01730-1535,42.499295000000004,-71.281889,781-275-9226,2195.7200000000003,17
a2af2e37-6937-37a2-bfbc-a585668e83bd,PCP31018,1 BULKLEY ST,WILLIAMSTOWN,MA,01267-2077,42.695743,-73.22211800000001,413-884-2424,4649.7599999999975,36
da4e8e43-7871-3ba6-bb63-900f053dc1a3,PCP31064,19 MARWOOD RD,WORCESTER,MA,01602-1716,42.269478,-71.807783,508-754-0393,1420.7600000000002,11
e613f5a1-7588-3efe-8701-fa9baf3241ff,PCP31073,338 TREMONT ST,REHOBOTH,MA,02769-2034,41.846878000000004,-71.24486999999999,508-223-3434,9170.359999999993,72
a6c412ac-1c2b-379b-94cb-ed0d3502df6e,PCP31153,601 HIGH ST,DEDHAM,MA,02026-1854,42.246871999999996,-71.179462,781-352-0930,3616.4799999999987,28
52bf0815-4d05-3e0b-bb3c-68c9f1d01a23,PCP31322,1415 BEACON ST,BROOKLINE,MA,02446-4819,42.323853,-71.142003,617-732-0005,1420.7600000000002,11
bbb7dba7-0965-3932-b798-94335c6d2806,PCP32175,29 RIVER RD,PEPPERELL,MA,01463-1621,42.670643,-71.602858,978-448-6900,7491.279999999994,58
5ae1f3b4-184f-3e3b-87ea-40a71a36cb74,PCP32208,56 N MAIN ST,FALL RIVER,MA,02720-2132,41.725351,-71.094162,508-673-3133,4133.119999999998,32
3582576d-ff8a-33be-8375-8664a2ccb3c1,PCP32214,17 HENSHAW ST,BRIGHTON,MA,02135-2905,42.33196,-71.020173,617-332-0205,7103.799999999995,56
9976c45d-97b8-3658-829b-765a6d2b8129,PCP32566,232 LAFAYETTE ST,SALEM,MA,01970-4742,42.499248,-70.898204,978-745-2385,8395.399999999994,65
b1516ff8-952b-3f90-a485-e43e29cbf469,PCP33041,14 MAIN ST,SOUTHBORO,MA,01772-1614,42.272062,-71.522795,508-787-9713,41589.52000000021,324
d70e4d56-753f-3c43-b222-59b74e018fd2,PCP33054,505 MIDDLESEX TPKE,BILLERICA,MA,01821-3584,42.559673,-71.260947,978-663-7077,3487.319999999999,27
40b3e60a-9978-34d1-885c-4e45e36c835b,PCP33064,116 APPLETON ST,CAMBRIDGE,MA,02138-3340,42.376043,-71.11868,617-413-2202,6199.679999999996,48
bb8c7fc3-4b76-3dec-a393-93f3fea083ee,PCP33465,142 MAIN ST,GROTON,MA,01450-4267,42.61176,-71.565269,978-448-3300,1291.6000000000001,10
0b269569-22e3-368b-a757-d85461a56ec2,PCP33474,123 SUMMER ST,ACTON,MA,01720-2258,42.483953,-71.43849499999999,978-263-5641,6199.679999999996,48
59631983-a65f-3984-bddc-a00e5e9b64d7,PCP33856,531 KING ST,LITTLETON,MA,01460-1279,42.535931,-71.490569,978-486-0009,4262.279999999998,33
4fd7b477-311c-3d73-8c70-d4036d45948f,PCP34039,184 A JONES RD,FALMOUTH,MA,02540-2908,41.594939000000004,-70.599243,508-564-0457,8782.879999999994,69
6a2d8e10-7652-3577-ad35-bcfef069454d,PCP34070,2100 DORCHESTER AVE,DORCHESTER,MA,02124-5615,42.33196,-71.020173,617-296-4000,4391.439999999998,34
3e45fcb2-030e-303a-958b-884a9b2288f3,PCP34083,1195 WASHINGTON ST,HOLLISTON,MA,01746-2259,42.195951,-71.45343000000001,508-429-1834,5424.719999999997,42
dacc8ae8-0665-3d73-acc4-0159f6cbd506,PCP34240,993 PROVIDENCE RD,WHITINSVILLE,MA,01588-2123,42.119228,-71.67182199999999,508-234-7334,11624.39999999999,90
da40c5d2-2914-3a09-8351-5f6a29fdf635,PCP34316,17 HENSHAW ST,BRIGHTON,MA,02135-2905,42.33196,-71.020173,617-254-0800,3616.4799999999987,28
75d49d50-d8ee-3017-a17e-f2075bc943ce,PCP34815,54 MAIN ST,LAKEVILLE,MA,02347-1608,41.834412,-70.957166,508-946-1444,8653.719999999994,67
bb953675-c1f1-3a9b-b59e-f33f8f84a6cd,PCP34946,142 LAKE ST,ARLINGTON,MA,02474-8874,42.418721999999995,-71.163912,978-873-6572,3745.6399999999985,29
bec62824-70a4-35de-a763-ec7f1f6df992,PCP34947,283 MAIN ST,KINGSTON,MA,02364-1910,41.987196000000004,-70.74194200000001,781-585-0585,4133.119999999998,32
0d6269d7-d51a-3bf5-ba28-ad4090e2a88f,ORTHOPEDIC TRAUMA P.C.,100 HIGHLAND ST,MILTON,MA,02186-3874,42.241557,-71.082432,617-696-2300,8653.719999999994,67
5f3a820c-2d15-32cf-85d7-b7dbf71cf3c9,DARTMOUTH DERMATOLOGY ASSOCIATES  PC,368 FAUNCE CORNER RD,DARTMOUTH,MA,02747-1257,41.56651,-70.958229,508-998-1994,8912.039999999994,69
fa49fc8d-ba48-3c45-89b7-ac0fb597bbe8,PCP36132,844 FRANKLIN ST,WRENTHAM,MA,02093-1223,42.052671000000004,-71.356858,508-384-7383,3874.7999999999984,30
6f8ad572-8023-3796-8582-e3ebc6113fb7,PCP36211,26 JENNIFER ST,LITTLETON,MA,01460-1709,42.535931,-71.490569,781-640-0900,3616.4799999999987,28
250b0a60-9323-3738-8433-100bab3970af,PCP36217,21 MARSHVIEW LANE,MARSTON MILLS,MA,02648,41.662727,-70.357208,508-420-1010,15111.719999999987,117
2f9e1e3a-32ca-3fbc-bfc6-eeb0d1a98c7d,PCP36255,ROUTE 132 CC MALL,HYANNIS,MA,02601,41.647227,-70.249978,508-790-7352,6716.319999999995,52
565a7254-2897-33cc-b625-fc1e67ac09b5,PCP36618,1 OAK AVE,BELMONT,MA,02478-2751,42.395317,-71.180284,617-484-5000,6974.639999999995,54
984fe9f6-06e9-3d7f-826d-c9ee0b3755d0,PCP36988,871 VARNUM AVE,LOWELL,MA,01854-1932,42.63898,-71.321141,978-459-4544,6070.519999999996,48
86410dd4-11b2-33d4-b13b-2eef40106246,PCP37099,466 TRAPELO RD,BELMONT,MA,02478-1421,42.395317,-71.180284,617-489-3790,6845.479999999995,53
c7b763e8-052d-3730-b00d-dec9a948c4cf,PCP37117,9 FOSTER ST,WAKEFIELD,MA,01880-2936,42.50436,-71.064061,781-850-5535,8653.719999999994,67
8c3bacaa-cbe6-3084-8c22-1371976d3daf,PCP37365,730 MAIN ST,MILLIS,MA,02054-1612,42.173103000000005,-71.36375600000001,508-376-9544,5424.719999999997,42
fd7e071a-f849-3bab-9e17-cba7ab618780,PCP37422,6 TALL PINES DR,YARMOUTH PORT,MA,02675-2517,41.706920000000004,-70.221117,508-857-8901,516.64,4
cd1de71e-98d1-3cba-8fd2-2b20331ff03f,PCP37542,589 DARTMOUTH ST,S DARTMOUTH,MA,02748-2516,41.661303,-70.937913,508-997-5636,2712.3599999999997,21
b31e375e-96dd-3a49-8fbf-563512101637,DEVITA CHIROPRACTIC OFFICE PC,271 GREAT RD,ACTON,MA,01720-4772,42.483953,-71.43849499999999,978-263-9336,5553.8799999999965,43
daad70f0-5913-38ff-af69-3e160a44b949,PCP38272,505 NASHUA RD,DRACUT,MA,01826-1929,42.679722999999996,-71.30068,978-957-4474,2066.5600000000004,17
59a88250-9a7f-381e-a6de-2bb8157255d4,PCP38323,110 LONG POND RD,PLYMOUTH,MA,02360-2642,41.897892,-70.62403,508-746-2284,4262.279999999998,33
5a3f6cb5-f5c1-3fb7-b905-373c057c3e50,MILFORD FRANKLIN EYE CENTER LLC,391 E CENTRAL ST,FRANKLIN,MA,02038-1350,42.084858,-71.41057099999998,508-528-3344,7103.799999999995,55
ca0fa05e-2347-30b2-b251-b2e7cd77fda1,READING INTERNAL MEDICINE ASSOCIATES INC,20 PONDMEADOW DR,READING,MA,01867-3261,42.535183,-71.105423,781-944-0040,5424.719999999997,42
b9dd3b5e-1247-345c-a155-791443c5b6c6,PCP39431,201 BROADWAY,CAMBRIDGE,MA,02139-1955,42.376043,-71.11868,617-494-1166,8007.919999999994,62
7373f03d-d59a-388a-96af-5af07b18626f,PCP39756,714 ROUTE 6A 706A,YARMOUTH PORT,MA,02675-2000,41.706920000000004,-70.221117,508-362-1600,3099.8399999999992,24
d7951884-93b0-3a1c-b974-ae7f4f5efaa7,PCP39859,444 MONTGOMERY ST,CHICOPEE,MA,01020-1968,42.175668,-72.572257,413-598-7777,11107.759999999991,87
7a88db40-6c11-3652-b00d-51f466934ef7,PCP41048,90 CONCORD AVE,BELMONT,MA,02478-4047,42.395317,-71.180284,617-785-0411,1420.7600000000002,12
3e7232f1-a588-3375-8ad7-65472f9d2f32,PCP41485,125 LIBERTY ST,SPRINGFIELD,MA,01103-1109,42.115454,-72.539978,413-739-6611,6070.519999999996,47
93195fdb-9cd5-3268-93d9-6a08a3589049,PCP41806,875 MASSACHUSETTS AVE,CAMBRIDGE,MA,02139-3067,42.376043,-71.11868,617-864-8482,3616.4799999999987,28
db6e0cea-70b9-3cab-b8fe-1bd1b4b649c3,PCP42340,69 MALDEN ST,REVERE,MA,02151-2234,42.421005,-70.99036,781-284-3200,4003.959999999998,31
65cea21f-d0ae-3d30-894c-20f051e07f80,WINCHESTER ORAL SURGERY PC,955 MAIN ST,WINCHESTER,MA,01890-4302,42.452752000000004,-71.144319,781-729-2800,2970.6799999999994,23
e0461873-3f43-34c6-9b83-81447ae375cc,EAR  NOSE AND THROAT CONSULTANTS  INC,1021 MAIN ST,WINCHESTER,MA,01890-1942,42.452752000000004,-71.144319,781-729-8845,10461.959999999992,81
68aef277-b7a6-301c-b1cb-8c143ad93f94,PCP43258,30 CONWELL ST,PROVINCETOWN,MA,02657-1548,42.056913,-70.190488,617-306-4633,11236.919999999991,87
31911439-5795-3e96-8351-b722d576e9f4,PCP43307,13 KIMBALL RD,WATERTOWN,MA,02472-3512,42.369451,-71.177925,617-945-8694,2583.2,20
188537ad-f726-37c2-bcb1-b91c39d40de3,PCP43350,167 DWIGHT RD,LONGMEADOW,MA,01106-1769,42.047565000000006,-72.57113000000001,413-567-5533,7620.439999999994,59
5f6d0067-17cb-3327-9690-86f6f6bbdc3e,SPECHT ORTHOPEDIC INC,207 SWANSEA MALL DR,SWANSEA,MA,02777-4120,41.758163,-71.21418100000001,508-675-3200,2583.2,20
945768aa-2200-3476-b042-993a9df74c65,BACK TO YOU PHYSICAL THERAPY AND SPORTS MEDICINE INC.,19 N MAIN ST,SHERBORN,MA,01770-1546,42.231947,-71.372963,617-571-7323,6587.159999999995,51
c2bb862f-7afe-318f-8bdc-4391c7fc716a,PCP44287,34 COURT ST,PLYMOUTH,MA,02360-8721,41.897892,-70.62403,508-965-5938,4003.959999999998,31
f60d122d-af1c-3d1c-a013-f84d8a8679a8,PCP44430,238 WAREHAM RD,MARION,MA,02738-1166,41.706839,-70.75095999999999,774-274-0768,5295.559999999997,41
0a1a403c-d7ca-3958-8a00-e3188b49c499,SURGICENTER ANESTHESIA ASSOCIATES  LLC,272 STANLEY ST,FALL RIVER,MA,02720-6009,41.725351,-71.094162,508-672-2290,2195.7200000000003,17
08a94aac-7e11-3a09-a3e4-c2869ee66eee,PCP44465,23 PINECREST BEACH DR,EAST FALMOUTH,MA,02536-4723,41.57072,-70.556682,508-527-6001,7620.439999999994,59
62b0b608-98d7-399c-bc4d-ff78143e82dc,PCP44540,15 PHEASANT RUN,WELLFLEET,MA,02667-7027,41.916805,-70.0271,617-538-3245,6845.479999999995,53
411735bd-f830-3011-a59f-c3f84a1f042e,PCP44598,30 HARDWICK RD,PETERSHAM,MA,01366-9701,42.459222,-72.216335,978-724-3424,5941.359999999996,46
80ea88c5-1c0c-32d9-9fc5-f53bac050baa,PCP45035,10 CENTRAL ST,W SPRINGFIELD,MA,01089-2742,42.125451,-72.649734,413-781-2910,9557.839999999993,74
3b56525f-8d28-37fe-8348-db1a1fee419c,PCP45705,249 AYER RD,HARVARD,MA,01451-1133,42.504256,-71.588513,978-289-9381,10332.799999999992,81
7dfc4528-f03f-3ad0-91a3-229368914349,JESSICA CROOKER OD  PLLC,85 FRONT ST,SCITUATE,MA,02066-1315,42.205062,-70.74297800000001,617-299-1125,4391.439999999998,34
27fe2736-8b86-385a-8120-e5b179493df7,ALEXEYENKO MEDICAL ASSOCIATES PC,319 ALLSTON ST B,BRIGHTON,MA,02135-7664,42.33196,-71.020173,617-734-1300,4003.959999999998,31
a79311e5-97bc-3165-ac58-2542676c16ef,LIVE FREE PHYSICAL THERAPY  INC.,493 MAIN ST,GROTON,MA,01450-4254,42.61176,-71.565269,978-449-9772,2970.6799999999994,23
c9c9bbf0-c1c0-30fe-94d3-a908a24ebb48,PCP46837,61 MAIN ST,BLACKSTONE,MA,01504-2215,42.039991,-71.53240600000001,508-752-4709,4649.7599999999975,36
04b5d866-ff5e-3905-baaa-03ef6af6e353,PCP46976,223 WALNUT ST,FRAMINGHAM,MA,01702-7500,42.307905,-71.436196,781-962-6813,5941.359999999996,46
9ac032b2-cb49-3527-9d23-0f3469378c3a,BERRY AND LOBEL  P.C.,209 QUINCY ST,BROCKTON,MA,02302-2926,42.082543,-71.024638,508-584-2291,10074.479999999992,78
f34ed325-cb86-3ac3-ae08-6febb2cbd26f,PCP47573,515 PROVIDENCE HWY,DEDHAM,MA,02026-6817,42.246871999999996,-71.179462,617-971-8501,10074.479999999992,78
78fdac6c-2d81-3ec5-a4ee-c17b22988a32,PCP47638,28 GREEN ST,NEWBURY,MA,01951-1721,42.770406,-70.872417,978-499-2103,5295.559999999997,41
57af70ba-946b-3109-89a8-82481c300705,COMPREHENSIVE PHYSICAL THERAPY  PC,1037 MAIN ST,LEICESTER,MA,01524-1313,42.238427,-71.91234,508-892-1335,12270.19999999999,95
c908bdbe-5dcf-3e20-9205-ac67a60428ea,PCP47943,12 ARROW ST,CAMBRIDGE,MA,02138-5105,42.376043,-71.11868,617-876-0309,6974.639999999995,54
6dffe5a9-5380-3a07-98c8-5e9ba17bd7f6,CUMMINGS PHYSICAL THERAPY INC,425 REVERE ST,REVERE,MA,02151-4543,42.421005,-70.99036,781-284-7597,6070.519999999996,48
a1ef6330-7fb0-33e8-9622-01506abb1490,PCP49110,64 MACY ST,RAYNHAM,MA,02767-1328,41.930477,-71.046214,774-409-7395,7749.599999999994,60
6482f755-25d8-372c-9b5a-855cd636a38a,PCP49123,70 MAIN ST,NORTHAMPTON,MA,01060-1470,42.327044,-72.67463000000001,413-584-0445,4133.119999999998,32
12f0f166-6c49-3f41-abf4-3b741facb987,ORTHOPAEDICS NORTHEAST  P.C.,575 TURNPIKE ST,NORTH ANDOVER,MA,01845-5937,42.673909,-71.091334,978-794-1946,9041.199999999993,70
519d41a1-0b82-3e6b-b4fe-6c00b050c881,PCP49519,1200 CONVERSE ST,LONGMEADOW,MA,01106-1760,42.047565000000006,-72.57113000000001,413-567-0380,6199.679999999996,48
81d48546-7545-3eb7-9543-0be8579e6ba1,PAGGI PHYSICAL THERAPY AND SPORTS REHABILITATION  INC,1842 BEACON ST,BROOKLINE,MA,02445-1922,42.323853,-71.142003,845-590-9450,9686.999999999993,76
c78fd2bf-1131-389d-a75a-c5d3f7b1b8ef,JOHN F YEE  MD  PC,596 BROADWAY,EVERETT,MA,02149-3743,42.405938,-71.054649,617-387-3330,9686.999999999993,75
20d66892-61a8-344c-a5ce-06ed522f6c42,VILLAGE EYE ASSOCIATES LLC,17 VILLAGE SQ,CHELMSFORD,MA,01824-2712,42.597055,-71.3697,978-250-3937,2324.88,18
c701b651-52fc-3067-9f4d-ce7c5e72b95d,NORFOLK COUNTY MEDICAL ASSOCIATES INC,844 FRANKLIN ST,WRENTHAM,MA,02093-1223,42.052671000000004,-71.356858,508-384-5000,3616.4799999999987,28
6549e15c-e37e-3877-b954-2d503c8a7e93,BAXTER CHIROPRACTOR  P.C.,109 LUMBER ST,ATHOL,MA,01331-2219,42.575924,-72.229618,978-249-2225,13690.959999999988,107
5c94e977-6b9e-3627-8a71-fcc187bb9dbd,PCP50214,26 HIGH ST,MILTON,MA,02186-3417,42.241557,-71.082432,617-698-4496,6328.839999999996,50
759663cc-0b5e-3e2a-98b3-e239ef48af01,JULIE A. BURKE,383 ELLIOT ST,NEWTON UPPER FALLS,MA,02464-1126,42.331876,-71.208402,617-964-3332,7620.439999999994,59
cd713027-3ff6-30c7-a8c8-5ffb817e3fb0,PCP50779,1371 BEACON ST,BROOKLINE,MA,02446-4965,42.323853,-71.142003,617-506-9889,4262.279999999998,33
a8f4e282-acfb-3d89-b94f-9c44af857ea0,PCP51142,89 MAIN ST,MEDWAY,MA,02053-1818,42.156203000000005,-71.43034499999999,508-533-8868,3358.159999999999,26
ca517cf5-bb77-3213-96be-e45060fc9989,PCP51368,3 ESSEX GREEN DR,PEABODY,MA,01960-2927,42.534279,-70.969782,978-317-0612,4262.279999999998,33
3f3970a5-e63b-3b1e-b705-ccb0e907eb49,PCP51385,233 HARVARD ST,BROOKLINE,MA,02446-5069,42.323853,-71.142003,617-834-0556,6070.519999999996,47
729bd884-c56e-3413-8fbd-b8cc5a1c1651,MASSACHUSETTS SOCIETY FOR THE PREVENTION OF CRUELTY TO CHILDREN,9 SULLIVAN RD,HOLYOKE,MA,01040-2841,42.211656,-72.642448,413-532-9446,8395.399999999994,65
04f553c5-5858-30a6-b318-f1e07a89c8bf,PCP51535,99 WALNUT ST,SAUGUS,MA,01906-1981,42.468432,-71.01394599999999,617-791-4805,11882.71999999999,92
de5903f8-3276-375f-8488-2ac9b0fe28c7,PCP51609,1244 BROADWAY,RAYNHAM,MA,02767-1973,41.930477,-71.046214,508-369-1715,8524.559999999994,66
d04412db-f1c9-3336-bcc7-4244becae45c,NUTRITION FOR LIFE  INC.,10 MAIN ST,LAKEVILLE,MA,02347-1674,41.834412,-70.957166,508-923-1103,11495.23999999999,90
a38fd5e3-7b22-32c8-af86-a0f4f5bdb8a6,COMPLETE PAIN CARE  LLC,1094 WORCESTER RD,FRAMINGHAM,MA,01702-5255,42.307905,-71.436196,781-237-1955,7749.599999999994,61
cc7ab9f2-8618-3b75-8985-e81ec31144c6,TAYLOR FAMILY CHIROPRACTIC PC,74 MAIN ST,MEDWAY,MA,02053-1824,42.156203000000005,-71.43034499999999,617-840-6663,13820.119999999988,107
703674b2-fc4a-32a4-899e-a58c00af3ffd,PSYCHIATRIC ASSOCIATES OF MALDEN  P.C.,578 MAIN ST,MALDEN,MA,02148-3900,42.42938,-71.058706,781-397-6789,4003.959999999998,31
6024eadd-2d8f-38bc-b860-299bb668af90,PCP54431,24 ROCKLAND ST,HANOVER,MA,02339-2226,42.122956,-70.85631,781-826-82286,3616.4799999999987,28
8aec004c-adcc-3253-9ed4-a4adf4370e0c,PCP55514,2 OAK ST,MASHPEE,MA,02649-7137,41.617622999999995,-70.492713,508-539-0221,3099.8399999999992,24
60ae8620-ce05-3969-bf35-d8486c4e59b2,KIDNEY CARE AND TRANSPLANT SERVICES OF NEW ENGLAND PC,2150 MAIN ST,SPRINGFIELD,MA,01104-3566,42.115454,-72.539978,413-733-0010,5295.559999999997,41
b51c5e64-22fd-3d77-9399-476171cfbdc8,PCP56979,323 BOSTON POST RD,SUDBURY,MA,01776-3022,42.383367,-71.42107,978-443-87073,4133.119999999998,32
9b776579-6ffd-3e53-b545-fcea3de001b1,EMERSON PATHOLOGY ASSOCIATES INC,133 OLD RD TO 9 ACRE COR,CONCORD,MA,01742-4159,42.462911,-71.364496,978-287-3355,4908.079999999997,38
f93e59e2-c0e4-3118-a1c2-3234c6dde120,CHARIS CENTER SOUTH  INC.,604 FOUNDRY ST,EASTON,MA,02334,42.040515,-71.109329,508-947-1901,13174.319999999989,102
b9b83645-4097-35d9-a73e-a613c6d8e147,PCP57512,863 CENTRAL ST,FRAMINGHAM,MA,01701-4813,42.307905,-71.436196,978-333-9056,6587.159999999995,51
aa729ce2-e7bf-365d-9e70-5b028bb40edc,PCP57528,6 NORMAN ST,SALEM,MA,01970-3314,42.499248,-70.898204,781-639-2039,8912.039999999994,69
6ecf1212-bfc6-3bfc-9868-0b7eca2d6e2f,ORTHO SPORT PHYSICAL THERAPY INC,102 W CTR ST,WEST BRIDGEWATER,MA,02379-1755,42.021617,-71.026717,508-588-2800,15370.039999999986,119
a2044f5c-402b-350e-9bf3-2dbc7ba55edf,EYE HEALTH ASSOCIATES LLC,51 STATE RD,DARTMOUTH,MA,02747-3319,41.56651,-70.958229,508-994-1400,4908.079999999997,38
2de9783e-fb2f-3642-b529-127b76017354,BETH ISRAEL DEACONESS HOSPITAL - PLYMOUTH INC,45 RESNIK RD,PLYMOUTH,MA,02360-4843,41.897892,-70.62403,508-746-1072,8524.559999999994,67
6be96f4a-03e1-32c7-8eca-afb523d6a030,NEW BEDFORD INTERNAL MEDICINE AND GERIATRICS  LLC,890 BROCK AVE,NEW BEDFORD,MA,02744-1626,41.661303000000004,-70.937913,508-984-5671,4133.119999999998,32
69c94b29-d7fc-3318-ac25-068361776cf0,TAYLOR AND SULLIVAN PLASTIC SURGERY LLC,300 MOUNT AUBURN ST,CAMBRIDGE,MA,02138-5665,42.376043,-71.11868,617-492-0620,4649.7599999999975,36
57a4f22d-ee7b-30b0-9ac7-23ab9e72cab9,PCP59814,1 SPRINGFIELD ST,CHICOPEE,MA,01013-2672,42.175668,-72.572257,,3616.4799999999987,28
cf765ed5-2de8-3583-8916-b8367f5e47ac,PCP60937,427 COLUMBIA RD,HANOVER,MA,02339-3213,42.122956,-70.85631,617-842-7505,8137.079999999994,63
f23d810e-636a-383d-b738-548893a84c9a,PCP61989,1696 MASSACHUSETTS AVE,CAMBRIDGE,MA,02138-1803,42.376043,-71.11868,617-501-4488,5037.239999999997,39
02ac6866-d3a6-34b6-b677-4ad855456cf9,PCP62147,1680 A BEACON ST,BROOKLINE,MA,02445-2180,42.323853,-71.142003,617-734-5770,7232.959999999995,56
f2a4daeb-4bf3-303e-9d97-fbfdee750d3c,PCP62247,154 COPELAND DR,MANSFIELD,MA,02048-1225,42.017302,-71.21641,508-339-1418,6457.999999999995,50
fa121e04-7f22-3fa1-b371-ef9daf3d2f2b,PCP63032,93 UNION ST,NEWTON CENTER,MA,02459-2241,42.331876,-71.208402,617-332-7733,6328.839999999996,49
7d6b6c7f-3022-3369-a515-6b71e321b2d4,ASSOCIATES IN OTOLARYNGOLOGY HEAD AND NECK SURGERY  PC,48 ELM ST,WORCESTER,MA,01609-2541,42.269478,-71.807783,508-757-0330,1420.7600000000002,11
5005bebb-60cc-361c-87d1-d96c3d6a751b,PCP63301,12 GALLAGHER DR,RANDOLPH,MA,02368-5240,42.178993,-71.052654,781-986-7558,1549.9200000000003,12
9712132c-71c8-3289-bef1-1cc69e3f3bc4,PSYCHOTHERAPY ASSOCIATES OF NORTH READING,58 CONCORD ST,NORTH READING,MA,01864-2602,42.578222,-71.084398,978-664-2566,8137.079999999994,63
825c9254-2ca4-335c-8abf-b33dc19e796c,PCP63533,6 BARTLETT RD,WINTHROP,MA,02152-2913,42.375541,-70.970646,617-846-3502,9816.159999999993,77
21ed1061-d809-3fa9-a1bd-bd0b1a108a41,BAY STATE EXCELLENT VISION,600 MAIN ST,MALDEN,MA,02148-3919,42.42938,-71.058706,781-321-6463,7362.119999999994,57
32dd69c8-377f-3760-b969-8742d583217e,PCP63830,100 HIGHLAND ST,MILTON,MA,02186-3878,42.241557,-71.082432,617-698-4830,9299.519999999993,72
3264ba36-c85e-38ca-b1ca-1bc0f0ef212f,PCP64078,21 ELIOT ST,NATICK,MA,01760-6085,42.284822,-71.348811,508-397-4210,1291.6000000000001,10
54e908ae-f2d6-3970-957e-1537900ef21e,PCP64209,10 N MAIN ST,FALL RIVER,MA,02720-2130,41.725351,-71.094162,508-674-6100,11495.23999999999,90
f7fd8ba5-ee6e-30a5-b8cd-9da08d485b8d,PAGE ENTERPRISES INC,27 E MAIN ST,WEBSTER,MA,01570-2310,42.047075,-71.845805,508-943-8895,9816.159999999993,76
4cc15176-e35e-330f-8b66-198ee174c65a,PCP64602,6 MAIN ST,HYANNIS,MA,02601-3107,41.647227,-70.249978,508-771-9622,6845.479999999995,53
8fc48197-92c4-3868-ad3e-d177a8e0fc23,MERRIMACK VALLEY PULMONARY ASSOCIATES  P.C.,565 TURNPIKE ST,NORTH ANDOVER,MA,01845-5936,42.673909,-71.091334,978-689-2247,5166.399999999997,40
55cf4059-5e57-3442-8072-cf46084b1d2e,PCP64981,352 PARK ST,NORTH READING,MA,01864-2158,42.578222,-71.084398,978-664-9400,3228.999999999999,25
f5c2ed46-d994-33c7-bc9e-c723b8ad24a0,PCP65005,1 ORR SQUARE C,REVERE,MA,02151-3200,42.421005,-70.99036,781-289-2144,5037.239999999997,39
159c3f19-dc48-34d0-9e19-929a9959fcb5,PCP65131,751 FALL RIVER AVE,SEEKONK,MA,02771-5627,41.839797999999995,-71.31804699999999,508-336-0576,5166.399999999997,40
ff87949b-dd31-390a-8711-eefde19296fc,PCP65332,1415 BEACON ST,BROOKLINE,MA,02446-4812,42.323853,-71.142003,617-983-0076,3616.4799999999987,28
086887d6-b07a-3673-9654-b0828b06f2c7,PCP65648,10 FORBES RD,BRAINTREE,MA,02184-2620,42.205416,-71.00216800000003,781-519-4756,4133.119999999998,32
c0e5b5c1-06ff-3c39-b600-90de0f4fc39f,PCP65886,339 WASHINGTON ST,DEDHAM,MA,02026-1870,42.246871999999996,-71.179462,617-610-8829,4649.7599999999975,36
e51da447-a862-3932-855a-6a292a19e6ed,PCP66369,327 ESSEX ST,LAWRENCE,MA,01840-1410,42.700272999999996,-71.161357,978-689-4402,4778.919999999997,37
8746db9e-d3c7-3829-9802-0e6d8b92bb0f,WORCESTER PHYSICAL THERAPY SERVICES  INC.,30 GLENNIE ST,WORCESTER,MA,01605-3917,42.269478,-71.807783,508-791-8740,1420.7600000000002,11
1f38c5ba-854b-304a-8d59-907d83a33066,PCP66505,300 MT AUBURN ST,CAMBRIDGE,MA,02138-5600,42.376043,-71.11868,617-492-4450,4778.919999999997,37
5db9c918-9e4d-38bb-a94c-2c031fcb6fb0,CRABBE CHIROPRACTIC  INC,132 S MAIN ST,ACUSHNET,MA,02743-2772,41.718216999999996,-70.901151,508-998-2800,6328.839999999996,49
e46a7b81-45ef-35e6-9778-a5d68790a02d,PCP66671,130 COLLEGE ST,SOUTH HADLEY,MA,01075-1493,42.256208,-72.58103,413-493-2563,4778.919999999997,37
27570e73-7b1a-3820-a78b-5fd01e997f6a,PCP66900,25 BANK ROW ST,GREENFIELD,MA,01301-3599,42.614671,-72.597063,413-329-6117,4003.959999999998,31
f6e60e12-f134-32b5-abd4-d3ca0b1b4b74,DERMCARE PHYSICIANS AND SURGEONS  LLC,154 E CENTRAL ST,NATICK,MA,01760-3644,42.284822,-71.348811,781-431-0060,4262.279999999998,33
c1414e2c-48df-3428-92a4-ac36114a2a45,ORTHOPEDIC AND SPORTS PHYSICAL THERAPY OF CAPE COD LLC,160 ROUTE 137,EAST HARWICH,MA,02645-1316,41.708597,-70.031856,774-237-0832,16532.479999999985,129
54f5a32c-aa15-36b7-bab5-cb7540869590,PCP67651,156 MASON TER,BROOKLINE,MA,02446-2772,42.323853,-71.142003,617-566-5071,7878.759999999994,61
e5ec9cfd-a9f4-3ae8-bd09-387586f21eaf,CHIROPRACTIC HEALTH CENTER LLP,800 PROVIDENCE RD,WHITINSVILLE,MA,01588-2125,42.119228,-71.67182199999999,508-234-8222,13820.119999999988,108
0ace4c03-6649-39df-859c-d8598c2b213f,PCP68425,919 MAIN ST,CLINTON,MA,01510-1613,42.411887,-71.690005,978-365-6044,3228.999999999999,25
77ce5075-fee8-333c-8505-2c32ead72e3d,PCP68574,17 ELM ST,BOXFORD,MA,01921-2321,42.683108000000004,-71.01833,978-887-6040,7620.439999999994,59
ff3a40a6-6fde-3c12-9eb1-3ebd11709ae3,PCP68637,1093 BEACON ST,BROOKLINE,MA,02446-5623,42.323853,-71.142003,617-232-3503,3616.4799999999987,28
63078321-b0d6-3081-ac76-f38f594256ef,EYES ON RANDOLPH  LLC,1157 N MAIN ST,RANDOLPH,MA,02368-2135,42.178993,-71.052654,781-963-2333,2841.5199999999995,22
58fe1815-1e8a-38ed-a91a-17d4ef18c8d8,PCP68975,259 MAIN ST,ASHLAND,MA,01721-2115,42.257754999999996,-71.473526,508-881-4368,12270.19999999999,95
935fc47d-45de-380c-a42c-3f3cac84744f,PCP69056,947 ROUTE 6A,YARMOUTH PORT,MA,02675-2171,41.706920000000004,-70.221117,508-326-3668,8007.919999999994,62
28add592-cd34-32b0-aa80-b4a531b61f1a,PCP69518,18 MILLISTON RD,MILLIS,MA,02054-1600,42.173103000000005,-71.36375600000001,508-376-2539,6716.319999999995,52
e482f478-8c5b-3b33-a4a2-8c9368861673,PCP69671,67 CODDINGTON ST,QUINCY,MA,02169-4511,42.261006,-71.008988,617-522-0170,6716.319999999995,52
cfdd8c47-ad93-3108-90d4-5acd3a787966,PCP70048,6 PLEASANT ST,MALDEN,MA,02148-5167,42.42938,-71.058706,781-910-4483,9428.679999999993,73
8436643c-5996-3440-a098-74351e5e2ddd,PCP70505,1093 BEACON ST,BROOKLINE,MA,02446-5623,42.323853,-71.142003,617-277-4238,7103.799999999995,55
7e0dbcaf-70aa-3da4-9780-5f31d0e23b6d,PCP70575,3 ALLIED DR,DEDHAM,MA,02026-6148,42.246871999999996,-71.179462,617-645-4819,3745.6399999999985,29
b14f04bf-08a8-3edf-997e-322e52c84850,PCP70851,800 WASHINGTON ST,NORWOOD,MA,02062-6615,42.187364,-71.195971,781-769-4000,5683.039999999996,44
1601128e-2c6f-3637-bc57-71368b828897,PCP71572,279 E MAIN ST,GLOUCESTER,MA,01930-4141,42.62885,-70.685875,978-761-3149,3099.8399999999992,24
d4dac97c-d36a-31a2-91b8-ee39bd16afba,PCP71576,100 OLD BILLERICA RD,BEDFORD,MA,01730-1267,42.499295000000004,-71.281889,781-275-8700,4391.439999999998,34
2628a43e-1c53-322f-8042-143806926c86,PCP72065,20 THOREAU RD,PLYMOUTH,MA,02360-3539,41.897892,-70.62403,508-944-8812,8524.559999999994,67
e9737a9f-08f2-3517-b317-f4f359849230,PCP72127,66 RIVER RD,SOUTH DEERFIELD,MA,01373-9752,42.481395,-72.589793,413-350-5137,7491.279999999994,58
363e8d5d-0430-3d82-b469-508677d077fa,PCP72155,278 ELM ST,SOMERVILLE,MA,02144-2919,42.390445,-71.101033,617-718-4268,3616.4799999999987,28
b4ee442b-fc35-30bc-8be0-0a62c5d7640c,PCP72216,69 SUMMER ST,HAVERHILL,MA,01830-5855,42.782945,-71.087436,978-835-8497,3616.4799999999987,28
df5a72fa-fb57-3a95-b115-665b3e2f0aa3,PCP72587,80 BOSTON TPKE,SHREWSBURY,MA,01545-3601,42.284766999999995,-71.714228,508-217-7200,9170.359999999993,71
c3824d8c-8e94-3f97-8fc8-31337215f727,PCP72648,1269 BEACON ST,BROOKLINE,MA,02446-5248,42.323853,-71.142003,617-739-2518,3616.4799999999987,28
a8528b4e-d267-3dd5-9e49-1cc72db3a060,PCP72713,838 WASHINGTON ST,HOLLISTON,MA,01746-3600,42.195951,-71.45343000000001,508-429-5558,5037.239999999997,39
8caacd73-57a5-3f59-9873-a495a1aa6dc0,PCP72850,1350 LAKEVIEW AVE,DRACUT,MA,01826-3424,42.679722999999996,-71.30068,978-957-5585,4391.439999999998,34
7079c74d-901a-3992-9bd5-ef306f5d908d,PCP72917,233 HARVARD STRET,BROOKLINE,MA,02446-5017,42.323853,-71.142003,617-792-5268,5683.039999999996,44
8f2f8640-5218-347d-b033-b38eda1c225c,FAMILY EYE CARE CENTER AND OPTICAL GALLERY INC.,5 CORNERSTONE SQ,WESTFORD,MA,01886-1483,42.585541,-71.44025,978-692-1400,1808.2400000000005,14
c925c40f-652d-3039-8f28-fac5f950d05b,PCP73983,2 ELM SQ,ANDOVER,MA,01810-3668,42.648044,-71.161751,978-604-4444,3616.4799999999987,28
5e912b42-5e81-3ad7-81e3-1dd00ab5320a,PAUL E GREENFIELD,52 CREST AVE,WINTHROP,MA,02152-1064,42.375541,-70.970646,617-846-7088,4778.919999999997,37
47daa3df-3877-3c51-916b-d6650d378c50,PCP74713,411 ROUTE 6A,YARMOUTH PORT,MA,02675-1843,41.706920000000004,-70.221117,508-364-9082,11107.759999999991,86
051acb41-d020-3cbd-9609-e8b13757434b,PCP75591,1276 MAIN ST,CONCORD,MA,01742-3027,42.462911,-71.364496,978-501-7176,4133.119999999998,32
b869a0e2-b18f-3c9a-942d-67366ed8b852,FAMILY EYE CARE  INC.,335 PARK AVE,WORCESTER,MA,01610-1000,42.269478,-71.807783,508-753-5103,4391.439999999998,34
49a2c683-61e9-340a-83b1-180d87b01c03,PROFESSIONAL PHYSICAL THERAPY AND SPORTS MEDICINE INC,620 OLD W CENTRAL ST,FRANKLIN,MA,02038-2912,42.084858,-71.41057099999998,508-528-6100,4133.119999999998,32
f2fd3dd9-c924-33e8-bf5f-ad34316959a4,PCP77926,45 STERLING ST,WEST BOYLSTON,MA,01583-1268,42.369417,-71.785036,774-261-8530,9557.839999999993,74
659efaae-3f7e-3346-acb1-c5d60a4328d9,VALLEY WOMEN'S HEALTH GROUP  LLC,3550 MAIN ST,SPRINGFIELD,MA,01107-1087,42.115454,-72.539978,413-781-8290,6070.519999999996,47
20b096dd-6658-378c-9355-c230621ddcc0,QUINCY SURGICAL ASSOCIATES  INC,700 CONGRESS ST,QUINCY,MA,02169-0909,42.261006,-71.008988,617-479-7333,2970.6799999999994,23
fb28cf4c-955b-32c7-906e-4b9ad6f5678a,LC HOLBROOK  INC.,169 N FRANKLIN ST,HOLBROOK,MA,02343-1111,42.140346,-70.997861,781-767-5200,9686.999999999993,75
96a4bbba-d12a-367e-b635-a7df9440999b,PCP80251,33 STATE RD,DARTMOUTH,MA,02747-3319,41.56651,-70.958229,508-996-4138,9041.199999999993,70
ae14cb98-56a5-3fb9-bc6f-d3d9949e958c,PCP80958,72 GORHAM RD,HARWICH PORT,MA,02646-1324,41.670154,-70.06519399999999,508-237-2337,12915.999999999989,100
29437dd4-1165-3098-a113-d55d1150ecea,PCP82077,287 WASHINGTON ST,S ATTLEBORO,MA,02703-5524,41.931653,-71.294503,508-399-6036,2066.5600000000004,16
fe1cf3e9-941b-3828-8067-efb34673a686,PCP82885,237 N MAIN ST,S. YARMOUTH,MA,02664-2000,41.667083,-70.200793,508-740-0706,17436.599999999984,135
0507f525-c041-34d0-b731-f39f2b7239c0,PCP83022,32 E NORTHFIELD RD,NORTHFIELD,MA,01360-9668,42.677091,-72.453876,413-773-0009,9041.199999999993,70
852ef15e-b75f-3084-ad20-b2a0e3e8cc7e,PCP84036,2000 WASHINGTON ST,NEWTON,MA,02462-1626,42.331876,-71.208402,617-964-2299,6716.319999999995,52
3c009a42-ce07-3859-84f6-b909e51cf0d4,VISION SOURCE OF AMHERST AND GREENFIELD,22 UNIVERSITY DR,AMHERST,MA,01002-2243,42.363534,-72.50729100000001,413-549-9400,3616.4799999999987,28
788271b2-4ace-3d36-8112-b7c8cfbdd3fd,PCP85294,12 ARROW ST,CAMBRIDGE,MA,02138-5105,42.376043,-71.11868,,5812.199999999996,45
2ef56205-01df-3799-bc11-730c09e28b4d,PCP85389,126 COMMONWEALTH AVE,DEDHAM,MA,02026-1441,42.246871999999996,-71.179462,617-522-1919,5037.239999999997,39
51052d64-8a89-37f8-9c7c-975ecfbe3ea8,PCP86790,1467 MAIN ST,ATHOL,MA,01331-2652,42.575924,-72.229618,,26219.479999999974,205
e6df9359-9976-31de-987b-c110e24410c8,MCNALLY BROTHERS,75 VAN DEENE AVE,WEST SPRINGFIELD,MA,01089-3216,42.125451,-72.649734,413-788-9621,3487.319999999999,27
3a24d987-a062-3e25-bc8e-d674bb3b467e,PCP88410,71 POND ST,SHARON,MA,02067-2042,42.108463,-71.185182,,8266.239999999994,64
1526db4c-93d7-3ca7-ad7a-318424e18285,PCP88480,92 HIGHLAND ST,MILTON,MA,02186-3800,42.241557,-71.082432,,11366.07999999999,88
e31728d2-e211-354d-9bb6-798887761da5,PCP88738,9 MILL AND MAIN PL,MAYNARD,MA,01754-2651,42.425955,-71.45625600000001,,11107.759999999991,86
909a0f76-d1bc-3354-a883-82d002a29123,LYNNFIELD PSYCHOLOGICAL ASSOCIATES  PC,180 MAIN ST,LYNNFIELD,MA,01940-2514,42.534146,-71.038333,781-334-2644,3616.4799999999987,28
9dd6b488-2cc9-3383-a460-09a6523ce78c,WESTON PRIMARY CARE  PC,56 COLPITTS RD,WESTON,MA,02493-1568,42.360502000000004,-71.303433,781-891-0906,4649.7599999999975,36
6d764f44-0f5a-3f7c-9bb1-f9ffe015fcc1,PCP89222,1842 BEACON ST,BROOKLINE,MA,02445-1922,42.323853,-71.142003,,4778.919999999997,37
c22030b8-f110-33fe-a794-624f15e83cd9,PCP89648,104 TREMONT ST,DUXBURY,MA,02332-4750,42.044307,-70.70604499999999,,5424.719999999997,42
424944df-a5c2-3500-8c23-fc9ec6105ace,CARROLL PHYSICAL THERAPY,735 ATTUCKS LN,HYANNIS,MA,02601-1867,41.647227,-70.249978,508-778-5000,4262.279999999998,33
ea04cb4f-a20f-3ae3-a938-79a5ffb2cc86,PCP90191,142 SHIRLEY AVE,REVERE,MA,02151-3211,42.421005,-70.99036,,4391.439999999998,34
6d765585-016e-3358-b20c-ff051f58ba6c,PCP90517,505 NASHUA RD,DRACUT,MA,01826-1929,42.679722999999996,-71.30068,978-957-9650,2324.88,18
a91ade25-2311-38cf-80ac-3d5270c0051e,PCP92092,2 POND PARK RD,HINGHAM,MA,02043-4354,42.224319,-70.880673,,4649.7599999999975,36
e0ba4ea4-4658-3465-8ed1-171d87ebf9d2,PCP92222,80 MECHANIC ST,ATHOL,MA,01331-2053,42.575924,-72.229618,978-249-7818,7232.959999999995,56
e7336029-59d9-372b-b675-fe2cefe7129a,PCP92259,13 BRADLEE RD,MEDFORD,MA,02155-3110,42.423844,-71.10923100000001,,1679.0800000000004,13
187674f4-8252-314f-a97c-d80acf51d977,PCP92449,2 ALLEN ST,HAMPDEN,MA,01036-9552,42.071188,-72.41771800000001,,13820.119999999988,107
87f6941d-90f6-3c1d-b443-4038458cf8d7,PLATINUM PHYSICAL THERAPY  INC.,15 W UNION ST,ASHLAND,MA,01721-1464,42.257754999999996,-71.473526,508-881-6750,8653.719999999994,67
01186ba6-bf1e-353f-ae4a-703e5fd65af0,PCP93038,107 MAIN ST,ANDOVER,MA,01810-3803,42.648044,-71.161751,,7620.439999999994,59
aef37af6-e500-36b8-b89f-873372229685,PCP93347,1 BROOKLINE PL,BROOKLINE,MA,02445-7237,42.323853,-71.142003,,3616.4799999999987,28
66745ade-e31f-39c0-8f61-f93f8419465b,MARK ROMANOWSKY MD PC,33 BARTLETT ST,LOWELL,MA,01852-1317,42.63898,-71.321141,978-458-1293,4003.959999999998,31
870799df-6708-3f9f-a165-7aaf3b51f4eb,PCP94153,37 B ST,BURLINGTON,MA,01803-3406,42.503227,-71.201713,,3874.7999999999984,30
c0dab828-5db5-3e9f-8529-cf7dd1d1ed33,PCP95658,99 4TH ST,CHELSEA,MA,02150-2326,42.396824,-71.031348,,516.64,4
a0c4098e-a8bd-3eee-a82a-3e72b621ff70,PCP96205,186 BURRILL ST,SWAMPSCOTT,MA,01907-1835,42.468059000000004,-70.89126,,6328.839999999996,49
7138b31f-5167-349c-950b-c3a73efb3e63,PCP96589,473 S ST W,RAYNHAM,MA,02767-5306,41.930477,-71.046214,,5037.239999999997,39
9c57c008-73c2-3ff0-8d3a-2f48a8cf6831,RCNA1 PLLC,129 TURNPIKE ST,NORTH ANDOVER,MA,01845-5032,42.673909,-71.091334,978-470-0800,4649.7599999999975,36
bb1a1c5f-ce6e-3851-be6f-ae72f1a80c7b,PCP98577,2 ENON ST,BEVERLY,MA,01915-1164,42.556659,-70.84496,,3487.319999999999,27
3a634d51-3890-301b-a1ef-7564687dc8fb,PCP99772,75 HERRICK ST,BEVERLY,MA,01915-5900,42.556659,-70.84496,978-922-5535,3616.4799999999987,28
ed9c9a24-42d4-31ab-8609-9a36f4523279,SCHATZKI ASSOCIATES INC,330 MOUNT AUBURN ST,CAMBRIDGE,MA,02138-5502,42.376043,-71.11868,617-499-5070,2712.3599999999997,21
aad90de1-23de-3239-bbf3-a22a9842cc31,FAMILY AND COMMUNITY RESOURCES INC,18 NEWTON ST,BROCKTON,MA,02301-5115,42.082543,-71.024638,508-583-6498,2841.5199999999995,22
43adb8de-57b5-367b-8f29-8d6a1caf5935,PCP101355,1 MEETING HOUSE RD,CHELMSFORD,MA,01824-2737,42.597055,-71.3697,,1162.44,9
24859bd7-0620-374b-bc28-880516462850,PCP101658,473 MAIN ST,FISKDALE,MA,01518-1293,42.124762,-72.110888,,5424.719999999997,44
c877aad7-ca44-3fe3-8afc-bcb44899ddc8,VEIN SPECIALISTS OF THE NORTH SHORE LLC,100 CUMMINGS CTR,BEVERLY,MA,01915-6105,42.556659,-70.84496,978-922-8346,5553.8799999999965,43
5181acd0-4c26-3172-9068-138966873eb6,PCP102671,22 W ST,MILLBURY,MA,01527-2622,42.192246000000004,-71.777649,,8912.039999999994,69
e55a9e25-912b-32de-b68b-eeca0fc9553d,PCP103582,599 MAIN ST,MALDEN,MA,02148-3920,42.42938,-71.058706,,2324.88,18
36012097-4635-3c0e-be0c-df0570a6a081,PCP103866,242 GREEN ST,GARDNER,MA,01440-1336,42.584206,-71.988737,978-630-6377,9816.159999999993,76
b2d77e5b-c99b-331e-a47b-76504177b6aa,MT. AUBURN CARDIOLOGY ASSOCIATES  INC.,300 MOUNT AUBURN ST,CAMBRIDGE,MA,02138-5665,42.376043,-71.11868,617-497-1560,1808.2400000000005,14
49576e6f-f875-3d69-89a7-1bd016f0b33a,PCP104516,171 MAIN ST,ASHLAND,MA,01721-1185,42.257754999999996,-71.473526,508-881-7766,20536.43999999998,159
9098c4b0-6b32-35c8-8094-9adb8dce7390,PCP105118,121 NANTASKET AVE,HULL,MA,02045-3106,42.340233000000005,-70.883301,,3616.4799999999987,28
2a13b9b4-e4fd-318b-a01d-cc96ca048cd7,PCP105874,104 QUARRY ST,QUINCY,MA,02169-4175,42.261006,-71.008988,,6328.839999999996,49
7048f223-5fe7-3864-a96e-b9acc08cc8c7,PCP106281,141 BRIDGE RD,SALISBURY,MA,01952-2400,42.844794,-70.841499,,3616.4799999999987,28
eb39dca7-a51b-3f72-a276-89fb9f80002e,PCP106710,271 MAIN ST,EAST DOUGLAS,MA,01516-2170,42.080784,-71.715992,,6587.159999999995,51
f4b46389-b2b4-3bf2-acbd-1ec20401ef4d,PCP106933,28 ESSEX ST,LYNN,MA,01902-1799,42.474862,-70.96218499999999,781-595-5500,6457.999999999995,50
3344450e-b132-3c90-894f-2b9028411ad8,PCP106991,11 UNION ST,LAWRENCE,MA,01840-1815,42.700272999999996,-71.161357,,5683.039999999996,45
6a1f2b62-18a3-3a7c-a673-0004e2d0b33a,PCP107572,11 CHESTNUT ST,ANDOVER,MA,01810-3724,42.648044,-71.161751,,3616.4799999999987,28
ca0ee331-1d07-3a4a-bf5f-36c651a211fd,PCP108106,512 CENTRE ST,JAMAICA PLAIN,MA,02130-2002,42.33196,-71.020173,617-522-0546,4262.279999999998,33
69b66209-01f1-357e-947d-74ca66b247c2,PCP109316,51 UNION ST,WORCESTER,MA,01608-1100,42.269478,-71.807783,,6328.839999999996,49
294a9963-a87f-3504-bb53-e42c59f83552,PCP109620,33 UNION ST,WEYMOUTH,MA,02190-2314,42.206676,-70.94584499999998,,4391.439999999998,34
c8503473-91ae-381f-b49e-dc633a30fb5a,PCP110373,510 CHAPMAN ST,CANTON,MA,02021-2096,42.175737,-71.125385,,11495.23999999999,90
cf6603a2-02cd-30b1-bbf5-c043e9379d67,PCP111012,100 MORSE ST,NORWOOD,MA,02062-4679,42.187364,-71.195971,,1420.7600000000002,11
bcb26f1b-a37d-37dd-8819-c5dd6b6d9f74,PCP111254,22 PLEASANT ST,WEST BRIDGEWATER,MA,02379-1506,42.021617,-71.026717,,6845.479999999995,54
86db1590-c568-39d8-9d28-add256c6f13e,DEBS CHIROPRACTIC P.C.,352 BOSTON TPKE,SHREWSBURY,MA,01545-3873,42.284766999999995,-71.714228,508-425-3305,7232.959999999995,56
aeb088d2-fff9-31fa-a081-aef2d585e089,PCP113549,767 MAIN RD,WESTPORT,MA,02790-4398,41.579794,-71.081822,508-636-6331,9041.199999999993,71
d9242200-7588-3df0-8ff0-61a45b07c487,PCP114043,32 NYE AVE,ACUSHNET,MA,02743-2750,41.718216999999996,-70.901151,,20665.59999999998,160
9f599d0e-3035-3db9-9499-4283ae8eaf70,PCP114087,201 HIGHLAND ST,CLINTON,MA,01510-1037,42.411887,-71.690005,,7362.119999999994,57
a21fbe89-efef-32ae-bedf-3368fd42408f,PCP114642,130 CENTRE ST,DANVERS,MA,01923-1400,42.574174,-70.95051600000001,,7103.799999999995,55
18473570-fa27-3388-a254-12325e3f4113,PCP114756,76 SUMMER ST,FITCHBURG,MA,01420-5701,42.601977000000005,-71.81586999999999,978-353-0004,4133.119999999998,32
492d0ba4-6fa5-3c26-be48-daf9308caf55,SOUTH SUBURBAN GASTROENTEROLOGY  PC,1085 MAIN ST,SOUTH WEYMOUTH,MA,02190-1547,42.206676,-70.94584499999998,781-331-2922,3874.7999999999984,30
00065b1c-5e71-3da5-907f-e9fc33eddbbf,PCP115959,170 MAIN ST E,MONSON,MA,01057-1353,42.093596000000005,-72.321494,,7232.959999999995,57
738bdee1-1f15-3f3f-8c85-7b2570a42796,PCP116017,55 HIGHLAND AVE,SALEM,MA,01970-2100,42.499248,-70.898204,,7749.599999999994,60
c9216d86-bc94-32af-98e6-3efe8e0bb31b,PCP116564,143 W MAIN ST,WEST BROOKFIELD,MA,01585-2812,42.256691,-72.158169,508-867-6161,4649.7599999999975,36
c2c9a655-efd6-36f5-af9c-3dd46c1f7a03,PCP116731,679 PLEASANT ST,PAXTON,MA,01612-1380,42.311693,-71.940282,,9686.999999999993,75
684cad81-eace-39f3-b257-01556300c06f,PCP117098,345 NEPONSET ST,CANTON,MA,02021-1940,42.175737,-71.125385,,8395.399999999994,65
df307868-cb89-31d5-8894-1ddbc7f7fbda,PCP118039,118 GREAT RD,STOW,MA,01775-1190,42.429688,-71.512514,,15111.719999999987,117
20878399-7909-3686-9d16-2c70ba9ed600,PCP118180,5 MARKET SQ,AMESBURY,MA,01913-2440,42.851284,-70.955837,603-489-3535,10849.439999999991,84
03b9694a-0380-3bb4-9878-4b260179ef63,PCP119133,980 WASHINGTON ST,DEDHAM,MA,02026-6704,42.246871999999996,-71.179462,,8912.039999999994,69
26f6db90-c68b-36e2-84d4-4bc34f61f4a6,PCP119414,1 BURLINGTON AVE,WILMINGTON,MA,01887-3926,42.564646999999994,-71.164516,,4262.279999999998,33
54c246fe-8bea-35df-b063-650f3d1f9511,SPECTRUM HEALTH SYSTEMS  INC,176 MAIN ST,SOUTHBRIDGE,MA,01550-2561,42.059669,-72.03404,508-765-5940,5037.239999999997,39
4d80350c-5aec-3670-bd0b-900752da087c,PCP120156,364 BURNCOAT ST,WORCESTER,MA,01606-3129,42.269478,-71.807783,,1291.6000000000001,10
1cf84eff-a7a3-3751-b228-76b6375b6c01,PCP120157,3 MAIN ST,WATERTOWN,MA,02472-4402,42.369451,-71.177925,,3616.4799999999987,28
2db889da-7f59-3bdb-9f98-4d40f24a2540,PCP121054,31 PINE ST,NORFOLK,MA,02056-1642,42.116244,-71.329274,,16790.799999999985,130
8114ba40-cf04-3c1c-9d25-ee5d58bab117,PCP121174,400 WASHINGTON ST,BRAINTREE,MA,02184-4723,42.205416,-71.00216800000003,,4520.599999999998,35
e1487097-cf0f-3e9e-9239-2e2d1d831711,PCP121859,1180 BEACON ST,BROOKLINE,MA,02446-3840,42.323853,-71.142003,,5683.039999999996,44
352525e3-4ae0-3539-b88b-ce589be9b580,PCP121963,1101 BEACON ST,BROOKLINE,MA,02446-5515,42.323853,-71.142003,,7491.279999999994,58
b10cdee7-8421-3cef-a191-364fadeffd9e,PCP122323,2110 DORCHESTER AVE,DORCHESTER,MA,02124-5690,42.33196,-71.020173,,774.9599999999999,7
12920b48-704d-3a1a-a2e0-6f7bb0fa6090,PCP122329,46 PKWY PLACE,HYANNIS,MA,02601,41.647227,-70.249978,,3487.319999999999,27
a1331f5d-b18b-318a-b376-81d14db5983f,PCP122892,76 MAIN ST,PEPPERELL,MA,01463-1561,42.670643,-71.602858,978-433-0517,3616.4799999999987,28
c4aa0990-a6d8-3d5f-a6d9-f640761ec82d,PCP123085,200 WALNUT ST,SAUGUS,MA,01906-1175,42.468432,-71.01394599999999,,13432.639999999989,104
1776755d-7040-3d15-b588-d67de0149d76,PCP124300,5 CROWLEY RD,WESTHAMPTON,MA,01027-9637,42.314078,-72.777977,,9557.839999999993,74
ab2c9205-7101-34df-bdbb-84ac18fa33bc,PCP124560,5 HIGH ST,MEDFORD,MA,02155-3800,42.423844,-71.10923100000001,,4908.079999999997,38
b13e475a-5977-300b-825c-87bdaff11d89,PCP124805,769 MA,HYANNIS,MA,02601,41.647227,-70.249978,,7232.959999999995,56
ddd36418-49d0-35fb-882c-45d12c8349e4,CENTER FOR DIGESTIVE WELLNESS PC,105 ERDMAN WAY,LEOMINSTER,MA,01453-1805,42.520876,-71.770611,978-537-7552,3616.4799999999987,28
ae072d0e-0be7-3627-ad1e-8be87110de63,PCP126432,50 LOOMIS ST,BEDFORD,MA,01730-2208,42.499295000000004,-71.281889,781-275-4479,2454.04,19
ed03dc2d-0567-3395-92df-4c18d4993565,PCP127028,391 BROADWAY,EVERETT,MA,02149-0009,42.405938,-71.054649,,4391.439999999998,34
d9a0f7fc-61df-3052-b0da-6339dcf4b3b7,EAR  NOSE AND THROAT ASSOCIATES OF WORCESTER  INC.,246 SOUTHBRIDGE RD,CHARLTON,MA,01507-5237,42.133935,-71.968025,508-980-7074,5424.719999999997,42
7828e5ea-1d0c-3cb2-a168-cbca730c12ee,A PLUS CHIROPRACTIC MANAGEMENT INC,2360 CRANBERRY HWY,WEST WAREHAM,MA,02576-1208,41.791736,-70.75787199999999,508-273-0190,19503.15999999998,153
a8b36eec-d44f-379c-acd2-d3d082bca238,PCP127958,1020 PLAIN ST,MARSHFIELD,MA,02050-2179,42.115139,-70.71033100000001,,11236.919999999991,87
c17db94f-4d24-3c3a-bc46-ffc9fa86e212,PCP128389,592 PROVIDENCE HWY,DEDHAM,MA,02026-6804,42.246871999999996,-71.179462,,12011.87999999999,94
c60b66d8-ce80-3d94-b4a7-2d97367a801b,PCP128550,140 MAIN ST,GROTON,MA,01450-1271,42.61176,-71.565269,,1937.4000000000005,15
e9e2998f-97d3-3f88-8ee8-82660c5ddfce,PCP128586,2360 CRANBERRY HWY,W WAREHAM,MA,02576-1208,41.748854,-70.74053599999998,,21569.71999999998,167
5fa45852-0951-3485-89a2-f02eb34e37b8,PCP128639,188 CONCORD ST,FRAMINGHAM,MA,01702-8315,42.307905,-71.436196,,2841.5199999999995,22
3fe0fb59-f52b-3323-8fea-d05ccb31a177,PCP129774,250 SALEM ST,REVERE,MA,02151-1018,42.421005,-70.99036,,4391.439999999998,34
127d0b28-580b-3171-b52a-7dd93083d1de,PCP130199,63 STATION LNDG,MEDFORD,MA,02155-5192,42.423844,-71.10923100000001,,4520.599999999998,35
0adbfc92-86b4-351b-9c0b-de45963055de,PCP130586,360 BROCKTON AVE,ABINGTON,MA,02351-2186,42.119966999999995,-70.957211,,8137.079999999994,63
7ce4229c-f2de-3004-8983-02dc9bf2f990,PCP131623,103 MYRON ST,WEST SPRINGFIELD,MA,01089-1485,42.125451,-72.649734,,6845.479999999995,53
f03d4e07-ce1f-3cd8-b666-97fd4ecbe1de,PCP133007,78 BRICKYARD RD,ATHOL,MA,01331-2051,42.575924,-72.229618,,12399.35999999999,97
04c749da-634e-3e9e-9806-a5052635370e,PCP133287,1592 GAR HWY,SOMERSET,MA,02726-1210,41.738479,-71.165065,,10203.639999999992,80
0322fd71-fda7-3e52-b4e3-33980f0a58e4,PCP133453,87 DAVIS STRAITS,FALMOUTH,MA,02540-3909,41.594939000000004,-70.599243,,3616.4799999999987,28
bdea7937-8a09-3972-816d-98dbc1b47c0b,MCNALLY BROTHERS,1066 GRANBY RD,CHICOPEE,MA,01020-1539,42.175668,-72.572257,413-534-4224,15499.199999999986,121
313016ee-d594-34a4-b180-6053dbfef778,PCP134574,6 BOSTON RD,CHELMSFORD,MA,01824-3046,42.597055,-71.3697,,4649.7599999999975,36
b3633532-6445-333c-82d2-d2575d840abe,PCP134756,185 LINCOLN ST,HINGHAM,MA,02043-1743,42.224319,-70.880673,,1679.0800000000004,13
9f58c0bd-ab63-3fff-95d4-6dca37991d12,PCP135711,600 CANTON AVE,MILTON,MA,02186-3139,42.241557,-71.082432,,4391.439999999998,34
086d8487-cdc9-3d92-9fac-d6174b672a9c,PCP135832,92 HIGH ST,MEDFORD,MA,02155-3850,42.423844,-71.10923100000001,,2841.5199999999995,22
141cb98e-6812-3da4-bfcf-cb14eb345a00,BAY STATE MEDICAL ASSOCIATES  PC,1717 REAR MAIN ST,BROCKTON,MA,02301-7134,42.082543,-71.024638,508-857-1466,8007.919999999994,63
88e4e804-522f-3b0a-bd56-4668452dff5e,PCP139219,755 GRATTAN ST,CHICOPEE,MA,01020-1238,42.175668,-72.572257,,6587.159999999995,51
ee643956-0707-3655-8c92-eaed0ec0fb12,PCP139674,1122 RIVERSIDE AVE,SOMERSET,MA,02726-2840,41.738479,-71.165065,,10074.479999999992,79
c1f6df80-fe5e-3a72-bdbc-7093801ab4ad,PCP140591,21 MAIN ST,NORTH READING,MA,01864-2286,42.578222,-71.084398,,7491.279999999994,58
cf72ee74-07e6-3547-902c-5ac720ea41ca,PCP141017,109 B COUNTY RD,N FALMOUTH,MA,02556-2019,41.601508,-70.639317,508-563-6655,6974.639999999995,54
d8548c27-16bf-3bdc-9e84-1b0947dd684b,PCP141056,2 GALLERIA MALL DR,TAUNTON,MA,02780-6913,41.903324,-71.094987,,7103.799999999995,55
e9b8265b-99c1-347f-bca0-057f4b01eeb0,PCP141086,119 LEWIS WHARF,BOSTON,MA,02110-3926,42.338551,-71.018253,617-742-5797,7232.959999999995,56
58dc1aed-824b-30c9-9f6e-67c20cee0a6c,PCP141666,77 HOSPITAL AVE,NORTH ADAMS,MA,01247-2538,42.675551,-73.11810899999999,,9945.319999999992,77
b1782f9b-dbb7-36cc-9a9f-d82689a7e27f,PCP141872,83 FAUNCE CORNER RD B,NORTH DARTMOUTH,MA,02747-1210,41.646686,-70.999158,,3616.4799999999987,28
772e1736-8918-30f3-8d49-e9912f93368d,PCP143107,303 CHIEF JUSTICE CUSHING HWY,SCITUATE,MA,02066,42.205062,-70.74297800000001,,6328.839999999996,49
129f2d58-3525-3665-bf25-6d2e45a8b622,PCP143569,438 CHESTNUT ST,SPRINGFIELD,MA,01107-2008,42.115454,-72.539978,,2324.88,18
f1a9ec93-ffdd-3914-8f98-5e7f6b32c423,PCP143610,550 WORCESTER RD,FRAMINGHAM,MA,01702-5362,42.307905,-71.436196,,6328.839999999996,50
0be7e592-fd37-398a-8f8f-7b0d6ed751ca,PCP143934,27 WOLCOTT ST,EVERETT,MA,02149-3513,42.405938,-71.054649,,4133.119999999998,33
5925dc03-88d0-36ac-be4a-008f30efce99,PCP145094,1218 MASSACHUSETTS AVE,CAMBRIDGE,MA,02138-3835,42.376043,-71.11868,617-441-8889,3745.6399999999985,29
7edbe23e-e109-318f-a0a5-f84b73a3e14a,PCP145628,379 LOWELL ST,PEABODY,MA,01960-2720,42.534279,-70.969782,,6070.519999999996,47
3574e4eb-6db9-3ebd-82ef-8e175ebb7845,PCP146208,230 LOWELL ST,WILMINGTON,MA,01887-3087,42.564646999999994,-71.164516,,8653.719999999994,67
100b141b-3f51-3916-97e3-c6a74f0eda16,PCP146764,194 S MAIN ST,WEST BRIDGEWATER,MA,02379-1770,42.021617,-71.026717,,9170.359999999993,72
870c851a-1a2f-3a4d-b01a-6572b6f4f042,ORTHOPAEDIC SPECIALISTS OF MASSACHUSETTS PC,100 HIGHLAND ST,MILTON,MA,02186-3874,42.241557,-71.082432,617-696-9299,4649.7599999999975,36
064b0486-4faf-34a3-aa81-59c7c77cd83b,PCP147968,1341 BOYLSTON ST,BOSTON,MA,02215-3909,42.338551,-71.018253,,3745.6399999999985,29
75198e43-d0eb-3238-b867-d3c5e96a50c5,PCP148186,344 BOSTON POST RD,SUDBURY,MA,01776-3007,42.383367,-71.42107,,1808.2400000000005,14
574e1369-9414-3dca-97ec-0a15f09431cc,PCP148288,1514 ALLEN ST,SPRINGFIELD,MA,01118-1817,42.115454,-72.539978,,5424.719999999997,42
71f24617-2b51-3355-90fe-2fca0875edb1,PCP148673,96 LYMAN ST,SOUTH HADLEY,MA,01075-2352,42.256208,-72.58103,413-533-7176,5812.199999999996,45
2cfd240e-3280-34b6-96cc-daf60ad5d14f,PCP148963,21 E MAIN ST,AVON,MA,02322-1413,42.132461,-71.054013,508-586-1046,29060.99999999997,226
d2a4bd57-1be2-36e9-ab40-fcfb1d35228b,PCP149763,25 MARSTON ST,LAWRENCE,MA,01841-2358,42.700272999999996,-71.161357,,4520.599999999998,35
2a01f15c-e34c-3b5c-850f-7e4a965561d4,PCP150002,660 E ST,MANSFIELD,MA,02048-2951,42.017302,-71.21641,,8524.559999999994,67
37abb65f-a091-3e9b-88ad-809e61d6c20e,PCP151286,72 SOHIER RD,BEVERLY,MA,01915-2654,42.556659,-70.84496,,4778.919999999997,37
6a76e4f4-0938-3078-8561-943669a44f6b,PCP152319,170 MAIN ST,AGAWAM,MA,01001-1803,42.064731,-72.653477,,12915.999999999989,100
842a065e-d670-3f99-ab33-1f1b2ac73478,PCP152490,44 PLEASANT ST,WOBURN,MA,01801-4127,42.488769,-71.154438,,7620.439999999994,59
f763c1a6-bc50-32ed-abcd-10c73c83ea71,PCP152802,95 WASHINGTON ST,CANTON,MA,02021-4006,42.175737,-71.125385,,7362.119999999994,57
b4fbf217-ac7b-3ecf-8c1a-d607c1d4f0db,SHIFA COMPREHENSIVE HEALTH CENTER,185 W AVE,LUDLOW,MA,01056-1700,42.183577,-72.457812,413-244-6947,5683.039999999996,44
f017cfb0-99ed-3c5b-b98a-9356bda3de8a,PCP155388,89 SHARON ST,STOUGHTON,MA,02072-2011,42.119006,-71.10365,,1808.2400000000005,14
150d4bec-d11c-3014-8818-45127743725d,PCP155636,69 BAYVIEW AVE,BERKLEY,MA,02779-1924,41.838060999999996,-71.07761500000001,,20794.75999999998,161
5de82ca2-8f1a-36da-9a84-fa35e5b73c39,PCP155835,15 CARLTON ST,BROOKLINE,MA,02446-5601,42.323853,-71.142003,,1808.2400000000005,14
322815fe-2d29-3fb0-9466-f66d4dd5796d,PCP156761,321 WASHINGTON ST,WESTWOOD,MA,02090-1801,42.219645,-71.216768,,10332.799999999992,80
7690c88a-6b49-39dc-b8fc-1340687e0fc2,SPECTRUM HEALTH SYSTEMS  INC,585 LINCOLN ST,WORCESTER,MA,01609,42.269478,-71.807783,508-854-3320,2712.3599999999997,21
e28bba72-0257-3495-bd05-be3234e2e4cf,PCP157870,1665 FALMOUTH RD,CENTERVILLE,MA,02632-2944,41.662727,-70.357208,,9686.999999999993,76
20169b35-8e4c-3124-a736-8e5da9c1000a,PCP158024,1426 MAIN ST,WALPOLE,MA,02081-1700,42.146285999999996,-71.255604,,8395.399999999994,65
08a7a201-23a7-3794-88cb-3e67dc0ca6b0,PCP158653,1180 BEACON ST,BROOKLINE,MA,02446-3885,42.323853,-71.142003,,10849.439999999991,84
bc43d0e3-1e93-3129-b411-b4e6cfc45024,PCP160433,204 LAFAYETTE ST,SALEM,MA,01970-4721,42.499248,-70.898204,,5812.199999999996,45
9cb9c46d-64f4-3f51-9cbb-f16b27e8b771,PCP161804,53 SPRINGFIELD ST,CHICOPEE,MA,01013-2624,42.175668,-72.572257,,11366.07999999999,88
c92c69e8-951f-361a-b677-1692ad6040ff,PCP161807,27 CHARLES ST,NORTH ANDOVER,MA,01845-1664,42.673909,-71.091334,,387.48,3
e9aebd7c-d425-34c9-b73b-5d9052f737bf,PCP161818,239 CROSS RD,NORTH DARTMOUTH,MA,02747-1992,41.646686,-70.999158,,7878.759999999994,61
1ed12ac9-4624-3ab9-a5cd-2d4afa7591ab,PCP162634,195 RUSSELL ST,HADLEY,MA,01035-9515,42.356491,-72.568632,,4003.959999999998,31
101218d1-91ab-36aa-b58d-c0bc85db26e2,PCP165543,416 BOSTON POST RD,SUDBURY,MA,01776-3016,42.383367,-71.42107,,6587.159999999995,51
f3b73817-43cb-3762-8353-bcfb64aa9b10,PCP166078,120 STOCKWELL DR,AVON,MA,02322-1149,42.132461,-71.054013,508-232-4012,2324.88,18
db6bd9cc-7e09-31e3-bc02-7138105c7661,PCP166697,172 COUNTY ST,SOMERSET,MA,02726-4202,41.738479,-71.165065,,6716.319999999995,52
24bcfc89-997e-3a62-a6c3-83ed31af8901,PCP167180,22 MCGRATH HWY 4,SOMERVILLE,MA,02143-4508,42.390445,-71.101033,,11495.23999999999,89
3c8b233a-6c05-3357-b6e0-97306efcf971,PCP167629,54 MAPLE AVE B,RUTLAND,MA,01543-1527,42.388284999999996,-71.969865,,21957.19999999998,171
75bc27b3-2841-3c4f-9069-13bed81bfa6c,PCP168395,181 STATE RD,WHATELY,MA,01093,42.430995,-72.642437,,8653.719999999994,67
bf831193-0c51-3d98-98bf-3ddd11eb4372,PCP168778,341 STATE RD,DARTMOUTH,MA,02747-4313,41.56651,-70.958229,,5812.199999999996,46
a1990b63-4dcb-34ff-a398-7c405998740d,MICHAEL J LANDMAN MD PC,25 MARSTON ST,LAWRENCE,MA,01841-2310,42.700272999999996,-71.161357,978-686-2400,4908.079999999997,38
bdea333f-75aa-3da6-bb15-c02294f7775e,C AND S REHABILITATION INCORP,40 N MAIN ST,BELLINGHAM,MA,02019-1590,42.076682,-71.47449,508-966-2717,12657.67999999999,98
822a6b9f-da15-3cc4-8436-ab61474f19fd,PCP169859,55 HOSPITAL DR,WINCHENDON,MA,01475-1820,42.66816,-72.055644,978-297-2311,7103.799999999995,55
26cae56e-4ab7-3af6-815b-96c5cab3ceae,PATRIOT URGENT CARE PROFESSIONALS  PC,154 GREAT RD,BEDFORD,MA,01730-2725,42.499295000000004,-71.281889,781-430-8161,9041.199999999993,70
8e7be35d-c07f-300c-bd19-ffd1933e3e8f,POSTUM EYE CARE INC,100 VALLEY PKWY,WHITINSVILLE,MA,01588-1743,42.119228,-71.67182199999999,508-234-4678,6199.679999999996,48
c21ec1c3-0a39-3a6f-9a58-7a9ef6674fec,PCP170543,730 MAIN ST,MILLIS,MA,02054-1611,42.173103000000005,-71.36375600000001,508-533-3500,2712.3599999999997,21
c7459800-e42b-3144-a934-59585c9eacff,PCP170967,1111 ELM ST,WEST SPRINGFIELD,MA,01089-1540,42.125451,-72.649734,413-221-0546,9428.679999999993,74
c13aae5c-3443-371c-a343-60f2c46d6852,PCP171808,12 CANDLEWOOD LN,DENNIS PORT,MA,02639-1334,41.666903999999995,-70.135645,508-292-6022,7491.279999999994,58
c70f789a-e244-3048-bbb7-c786d3f5de9b,BICKFORD HEALTH ASSOCIATES PC,714 MAIN ST,YARMOUTH PORT,MA,02675-2000,41.706920000000004,-70.221117,508-362-1600,8912.039999999994,69
7110e6b9-bc4f-3e89-a73e-d10bca5d55a0,THERAPY ASSOCIATES OF CHELMSFORD LLC,3 COURTHOUSE LN,CHELMSFORD,MA,01824-1720,42.597055,-71.3697,978-710-7569,6070.519999999996,47
e558a841-bed0-3621-a3ee-714565723765,C AND S REHABILITATION INCORP,26 ASYLUM ST,MILFORD,MA,01757-1266,42.158691999999995,-71.521419,508-473-0400,13949.279999999988,108
e949fd38-f011-3e21-96d8-e0a4a3003daa,GRABIAS MEDICAL GROUP PC,340 THOMPSON RD,WEBSTER,MA,01570-1509,42.047075,-71.845805,508-949-1988,5812.199999999996,45
d66e8139-0d57-36b9-bb1a-003c3b7f78a5,PCP173098,720 WASHINGTON ST,HANOVER,MA,02339-2472,42.122956,-70.85631,781-826-36011,4262.279999999998,33
7638b2b1-dbae-3cf5-bd72-676b736b7c87,STREFF ASSOCIATES  LLC,132 GREAT RD,STOW,MA,01775-1189,42.429688,-71.512514,978-263-04395,9686.999999999993,76
e0ca0c69-8ba4-35e5-aa72-ea06997ed383,HILLTOWN COMMUNITY HEALTH CENTERS INC,58 OLD N RD,WORTHINGTON,MA,01098,42.397559,-72.943392,413-238-5511,17436.599999999984,135
f3167fd3-4c11-3173-bdae-f72226c39285,L AND M RADIOLOGY  INC.,147 PELHAM ST,METHUEN,MA,01844-2060,42.742751,-71.178588,978-946-8425,6716.319999999995,52
4239cf59-fd17-3bf3-877d-1b750b270828,PCP174662,9 CTR CT,NORTHAMPTON,MA,01060-3006,42.327044,-72.67463000000001,413-404-7040,3228.999999999999,25
c9abd93d-8106-37ce-8461-c8b8ee5494a9,NORTHAMPTON RADIOLOGIC ASSOCIATES  INC.,238 NORTHAMPTON ST,EASTHAMPTON,MA,01027-1046,42.265435,-72.670813,413-529-9300,4520.599999999998,35
9ad584df-980f-3c72-862d-c1262c989e87,CEDAR STREET FAMILY CLINIC INC,340 MAIN ST,WORCESTER,MA,01608-1601,42.269478,-71.807783,508-752-1331,10332.799999999992,80
8ede8574-75ef-363e-98c3-3751f619404b,PCP175737,101 CAMBRIDGE ST,BURLINGTON,MA,01803-3768,42.503227,-71.201713,857-205-3156,3616.4799999999987,28
0f8cbd41-7442-3e09-bc56-4186fd47d1d5,PCP176263,82 WILLOW ST,FLORENCE,MA,01062-2640,42.327044,-72.67463000000002,,4908.079999999997,38
50396b58-b51a-3165-9a94-78b17bb7c09e,PCP176479,145 WHITTIER RD,MILTON,MA,02186-3736,42.241557,-71.082432,617-322-1544,4391.439999999998,34
dc65e5ff-11df-39f3-b82f-cc18aa62a675,PCP177010,1 W WATER ST,WAKEFIELD,MA,01880-2930,42.50436,-71.064061,,5166.399999999997,40
a82a3021-10a1-3f7f-8198-678daddad703,METHUEN PODIATRY ASSOCIATES LLP,386 MERRIMACK ST,METHUEN,MA,01844-5802,42.742751,-71.178588,978-682-0382,3099.8399999999992,24
e89b4df6-6c42-3779-b6d2-0110f7a499f1,PCP177927,50 ADAMS ST,NEWTON,MA,02460-1461,42.331876,-71.208402,617-965-3958,5812.199999999996,45
ad18df08-2958-3f21-a5af-f62a276ff31f,PCP177981,323 BOSTON POST RD,SUDBURY,MA,01776-3022,42.383367,-71.42107,978-440-9404,4003.959999999998,31
e3bb9270-05bd-386d-8db2-d4616822f71f,ALLERGY AND ASTHMA PHYSICIANS PC,1 CITY HALL MALL,MEDFORD,MA,02155-4770,42.423844,-71.10923100000001,781-392-2922,5683.039999999996,44
35763b90-63ab-3c6a-895a-8c83bfa6bd3c,PCP178557,146 MAIN ST,NORFOLK,MA,02056-1322,42.116244,-71.329274,,1420.7600000000002,11
97291b86-0e3d-3f40-aa53-7fe629cc0c10,PCP179072,50 TREMONT ST,MELROSE,MA,02176-2727,42.455723,-71.05901899999999,781-662-3310,3616.4799999999987,28
9ff5ef2f-eae4-391f-a4c0-657803f04569,ADULT AND PEDIATRIC DERMATOLOGY  P.C.,80 ERDMAN WAY,LEOMINSTER,MA,01453-1840,42.520876,-71.770611,978-371-7010,4003.959999999998,31
79da249b-82e4-3074-8c82-6049b443aff0,PCP179691,57 PROSPECT ST,NANTUCKET,MA,02554-2799,41.293416,-70.10216899999999,508-228-4846,3874.7999999999984,30
72908cd5-4143-36c0-9725-5321682dbb31,PCP179988,101 ACCESS RD,NORWOOD,MA,02062-5245,42.187364,-71.195971,,10591.119999999992,83
a6d5f14d-9e8c-30c6-bf7f-395dad054b72,PCP180360,80 MECHANIC ST,ATHOL,MA,01331-3534,42.575924,-72.229618,978-249-0929,3616.4799999999987,28
e9079399-5881-3e8d-b201-1d8eef9c5bbf,PCP180408,125 LOWELL AVE,NEWTONVILLE,MA,02460-1521,42.331876,-71.208402,617-965-2037,3616.4799999999987,28
3c32a99e-b7c8-3050-a775-6472914edb26,DRAC PT INC,200 PROVIDENCE HWY,DEDHAM,MA,02026-1881,42.246871999999996,-71.179462,781-326-8332,8782.879999999994,68
